$GPRMC,140053.00,A,4454.1740,N,09325.0143,W,000.0,128.7,300508,001.1,E,A*2E
$GPGGA,140053.00,4454.1740,N,09325.0143,W,1,09,01.1,00289.8,M,-030.7,M,,*5E
$GPGSA,A,3,21,15,18,24,26,29,06,22,,03,,,02.0,01.1,01.7*04
$GPGSV,3,1,12,21,75,306,40,15,59,075,46,18,57,269,49,24,56,115,46*79
$GPGSV,3,2,12,26,48,059,43,29,27,188,48,06,25,308,41,22,18,257,33*7D
$GPGSV,3,3,12,08,14,060,,03,11,320,32,09,06,144,,16,04,311,*7C
$GPRMC,140054.00,A,4454.1740,N,09325.0143,W,000.0,128.7,300508,001.1,E,A*29
$GPGGA,140054.00,4454.1740,N,09325.0143,W,1,09,01.1,00289.8,M,-030.7,M,,*59
$GPGSA,A,3,21,15,18,24,26,29,06,22,,03,,,02.0,01.1,01.7*04
$GPGSV,3,1,12,21,75,306,40,15,59,075,46,18,57,269,49,24,56,115,46*79
$GPGSV,3,2,12,26,48,059,43,29,27,188,48,06,25,308,41,22,18,257,33*7D
$GPGSV,3,3,12,08,14,060,,03,11,320,32,09,06,144,,16,04,311,*7C
$GPRMC,140055.00,A,4454.1740,N,09325.0143,W,000.0,128.7,300508,001.1,E,A*28
$GPGGA,140055.00,4454.1740,N,09325.0143,W,1,09,01.1,00289.8,M,-030.7,M,,*58
$GPGSA,A,3,21,15,18,24,26,29,06,22,,03,,,02.0,01.1,01.7*04
$GPGSV,3,1,12,21,75,306,40,15,59,075,46,18,57,269,49,24,56,115,46*79
$GPGSV,3,2,12,26,48,059,43,29,27,188,48,06,25,308,41,22,18,257,33*7D
$GPGSV,3,3,12,08,14,060,,03,11,320,32,09,06,144,,16,04,311,*7C
$GPRMC,140056.00,A,4454.1740,N,09325.0143,W,000.0,128.7,300508,001.1,E,A*2B
$GPGGA,140056.00,4454.1740,N,09325.0143,W,1,09,01.1,00289.8,M,-030.7,M,,*5B
$GPGSA,A,3,21,15,18,24,26,29,06,22,,03,,,02.0,01.1,01.7*04
$GPGSV,3,1,12,21,75,306,40,15,59,075,46,18,57,269,49,24,56,115,46*79
$GPGSV,3,2,12,26,48,059,43,29,27,188,48,06,25,308,41,22,18,257,33*7D
$GPGSV,3,3,12,08,14,060,,03,11,320,32,09,06,144,,16,04,311,*7C
$GPRMC,140057.00,A,4454.1740,N,09325.0143,W,000.0,128.7,300508,001.1,E,A*2A
$GPGGA,140057.00,4454.1740,N,09325.0143,W,1,09,01.1,00289.8,M,-030.7,M,,*5A
$GPGSA,A,3,21,15,18,24,26,29,06,22,,03,,,02.0,01.1,01.7*04
$GPGSV,3,1,12,21,75,306,40,15,59,075,46,18,57,269,49,24,56,115,46*79
$GPGSV,3,2,12,26,48,059,43,29,27,188,48,06,25,308,41,22,18,257,33*7D
$GPGSV,3,3,12,08,14,060,,03,11,320,32,09,06,144,,16,04,311,*7C
$GPRMC,140058.00,A,4454.1740,N,09325.0143,W,000.1,128.7,300508,001.1,E,A*24
$GPGGA,140058.00,4454.1740,N,09325.0143,W,1,09,01.1,00289.8,M,-030.7,M,,*55
$GPGSA,A,3,21,15,18,24,26,29,06,22,,03,,,02.0,01.1,01.7*04
$GPGSV,3,1,12,21,75,306,40,15,59,075,46,18,57,269,49,24,56,115,46*79
$GPGSV,3,2,12,26,48,059,43,29,27,188,48,06,25,308,41,22,18,257,33*7D
$GPGSV,3,3,12,08,14,060,,03,11,320,32,09,06,144,,16,04,311,*7C
$GPRMC,140059.00,A,4454.1740,N,09325.0143,W,000.0,128.7,300508,001.1,E,A*24
$GPGGA,140059.00,4454.1740,N,09325.0143,W,1,09,01.1,00289.8,M,-030.7,M,,*54
$GPGSA,A,3,21,15,18,24,26,29,06,22,,03,,,02.0,01.1,01.7*04
$GPGSV,3,1,12,21,75,306,40,15,59,075,46,18,57,269,49,24,56,115,46*79
$GPGSV,3,2,12,26,48,059,42,29,26,188,48,06,25,308,41,22,18,257,33*7D
$GPGSV,3,3,12,08,14,060,,03,11,320,32,09,06,144,,16,04,311,*7C
$GPRMC,140100.00,A,4454.1740,N,09325.0143,W,000.0,128.7,300508,001.1,E,A*29
$GPGGA,140100.00,4454.1740,N,09325.0143,W,1,09,01.1,00289.8,M,-030.7,M,,*59
$GPGSA,A,3,21,15,18,24,26,29,06,22,,03,,,02.0,01.1,01.7*04
$GPGSV,3,1,12,21,75,306,40,15,59,075,46,18,57,269,49,24,56,115,46*79
$GPGSV,3,2,12,26,48,059,42,29,26,188,48,06,25,308,41,22,18,257,33*7D
$GPGSV,3,3,12,08,14,060,,03,11,320,32,09,06,144,,16,04,311,*7C
$GPRMC,140101.00,A,4454.1740,N,09325.0143,W,000.0,128.7,300508,001.1,E,A*28
$GPGGA,140101.00,4454.1740,N,09325.0143,W,1,09,01.1,00289.8,M,-030.7,M,,*58
$GPGSA,A,3,21,15,18,24,26,29,06,22,,03,,,02.0,01.1,01.7*04
$GPGSV,3,1,12,21,75,306,40,15,59,075,46,18,57,269,49,24,56,115,46*79
$GPGSV,3,2,12,26,48,059,42,29,26,188,48,06,25,308,41,22,18,257,33*7D
$GPGSV,3,3,12,08,14,060,,03,11,320,33,09,06,144,,16,04,311,*7D
$GPRMC,140102.00,A,4454.1740,N,09325.0143,W,000.0,128.7,300508,001.1,E,A*2B
$GPGGA,140102.00,4454.1740,N,09325.0143,W,1,09,01.1,00289.8,M,-030.7,M,,*5B
$GPGSA,A,3,21,15,18,24,26,29,06,22,,03,,,02.0,01.1,01.7*04
$GPGSV,3,1,12,21,75,306,40,15,59,075,46,18,57,269,49,24,56,115,46*79
$GPGSV,3,2,12,26,48,059,42,29,26,188,48,06,25,308,41,22,18,257,33*7D
$GPGSV,3,3,12,08,14,060,,03,11,320,33,09,06,144,,16,04,311,*7D
$GPRMC,140103.00,A,4454.1740,N,09325.0143,W,000.0,128.7,300508,001.1,E,A*2A
$GPGGA,140103.00,4454.1740,N,09325.0143,W,1,09,01.1,00289.8,M,-030.7,M,,*5A
$GPGSA,A,3,21,15,18,24,26,29,06,22,,03,,,02.0,01.1,01.7*04
$GPGSV,3,1,12,21,75,306,39,15,59,075,46,18,57,269,49,24,56,115,46*77
$GPGSV,3,2,12,26,48,059,42,29,26,188,48,06,25,308,41,22,18,257,33*7D
$GPGSV,3,3,12,08,14,060,,03,11,320,33,09,06,144,,16,04,311,*7D
$GPRMC,140104.00,A,4454.1740,N,09325.0143,W,000.0,128.7,300508,001.1,E,A*2D
$GPGGA,140104.00,4454.1740,N,09325.0143,W,1,09,01.1,00289.8,M,-030.7,M,,*5D
$GPGSA,A,3,21,15,18,24,26,29,06,22,,03,,,02.0,01.1,01.7*04
$GPGSV,3,1,12,21,75,306,39,15,59,075,46,18,57,269,49,24,56,115,46*77
$GPGSV,3,2,12,26,48,059,42,29,26,188,48,06,25,308,41,22,18,257,33*7D
$GPGSV,3,3,12,08,14,060,,03,11,320,33,09,06,144,,16,04,311,*7D
$GPRMC,140105.00,A,4454.1740,N,09325.0143,W,000.0,128.7,300508,001.1,E,A*2C
$GPGGA,140105.00,4454.1740,N,09325.0143,W,1,09,01.1,00289.8,M,-030.7,M,,*5C
$GPGSA,A,3,21,15,18,24,26,29,06,22,,03,,,02.0,01.1,01.7*04
$GPGSV,3,1,12,21,75,306,39,15,59,075,46,18,57,269,49,24,56,115,46*77
$GPGSV,3,2,12,26,48,059,42,29,26,188,48,06,25,308,41,22,18,257,33*7D
$GPGSV,3,3,12,08,14,060,,03,11,320,33,09,06,144,,16,04,311,*7D
$GPRMC,140106.00,A,4454.1740,N,09325.0143,W,000.0,128.7,300508,001.1,E,A*2F
$GPGGA,140106.00,4454.1740,N,09325.0143,W,1,09,01.1,00289.8,M,-030.7,M,,*5F
$GPGSA,A,3,21,15,18,24,26,29,06,22,,03,,,02.0,01.1,01.7*04
$GPGSV,3,1,12,21,75,306,39,15,59,075,46,18,57,269,49,24,56,115,46*77
$GPGSV,3,2,12,26,48,059,42,29,26,188,48,06,25,308,41,22,18,257,33*7D
$GPGSV,3,3,12,08,14,060,,03,11,320,33,09,06,144,,16,04,311,*7D
$GPRMC,140107.00,A,4454.1740,N,09325.0143,W,000.0,128.7,300508,001.1,E,A*2E
$GPGGA,140107.00,4454.1740,N,09325.0143,W,1,09,01.1,00289.8,M,-030.7,M,,*5E
$GPGSA,A,3,21,15,18,24,26,29,06,22,,03,,,02.0,01.1,01.7*04
$GPGSV,3,1,12,21,75,306,39,15,59,075,46,18,57,269,49,24,56,115,46*77
$GPGSV,3,2,12,26,48,059,42,29,26,188,48,06,25,308,41,22,18,257,33*7D
$GPGSV,3,3,12,08,14,060,,03,11,320,33,09,06,144,,16,04,311,*7D
$GPRMC,140108.00,A,4454.1740,N,09325.0143,W,000.0,128.7,300508,001.1,E,A*21
$GPGGA,140108.00,4454.1740,N,09325.0143,W,1,09,01.1,00289.8,M,-030.7,M,,*51
$GPGSA,A,3,21,15,18,24,26,29,06,22,,03,,,02.0,01.1,01.7*04
$GPGSV,3,1,12,21,75,306,39,15,59,075,46,18,57,269,49,24,56,115,46*77
$GPGSV,3,2,12,26,48,059,42,29,26,188,48,06,25,308,41,22,18,257,33*7D
$GPGSV,3,3,12,08,14,060,,03,11,320,33,09,06,144,,16,04,311,*7D
$GPRMC,140109.00,A,4454.1740,N,09325.0143,W,000.0,128.7,300508,001.1,E,A*20
$GPGGA,140109.00,4454.1740,N,09325.0143,W,1,09,01.1,00289.8,M,-030.7,M,,*50
$GPGSA,A,3,21,15,18,24,26,29,06,22,,03,,,02.0,01.1,01.7*04
$GPGSV,3,1,12,21,75,306,39,15,59,075,46,18,57,269,49,24,56,115,46*77
$GPGSV,3,2,12,26,48,059,42,29,26,188,48,06,25,308,41,22,18,257,33*7D
$GPGSV,3,3,12,08,14,060,,03,12,320,33,09,06,144,,16,04,311,*7E
$GPRMC,140110.00,A,4454.1740,N,09325.0143,W,000.0,128.7,300508,001.1,E,A*28
$GPGGA,140110.00,4454.1740,N,09325.0143,W,1,09,01.1,00289.8,M,-030.7,M,,*58
$GPGSA,A,3,21,15,18,24,26,29,06,22,,03,,,02.0,01.1,01.7*04
$GPGSV,3,1,12,21,75,306,39,15,59,075,46,18,57,269,49,24,56,115,46*77
$GPGSV,3,2,12,26,48,059,42,29,26,188,48,06,25,308,41,22,18,257,33*7D
$GPGSV,3,3,12,08,14,060,,03,12,320,33,09,06,144,,16,04,311,*7E
$GPRMC,140111.00,A,4454.1740,N,09325.0143,W,000.0,128.7,300508,001.1,E,A*29
$GPGGA,140111.00,4454.1740,N,09325.0143,W,1,09,01.1,00289.8,M,-030.7,M,,*59
$GPGSA,A,3,21,15,18,24,26,29,06,22,,03,,,02.0,01.1,01.7*04
$GPGSV,3,1,12,21,75,306,39,15,59,075,46,18,57,269,49,24,56,115,46*77
$GPGSV,3,2,12,26,48,059,42,29,26,188,48,06,25,308,41,22,18,257,33*7D
$GPGSV,3,3,12,08,14,060,,03,12,320,33,09,06,144,,16,04,311,*7E
$GPRMC,140112.00,A,4454.1740,N,09325.0143,W,000.0,128.7,300508,001.1,E,A*2A
$GPGGA,140112.00,4454.1740,N,09325.0143,W,1,09,01.1,00289.8,M,-030.7,M,,*5A
$GPGSA,A,3,21,15,18,24,26,29,06,22,,03,,,02.0,01.1,01.7*04
$GPGSV,3,1,12,21,75,306,39,15,59,075,46,18,57,269,49,24,56,115,46*77
$GPGSV,3,2,12,26,48,059,42,29,26,188,48,06,25,308,41,22,18,257,33*7D
$GPGSV,3,3,12,08,14,060,,03,12,320,33,09,06,144,,16,04,311,*7E
$GPRMC,140113.00,A,4454.1740,N,09325.0143,W,000.0,128.7,300508,001.1,E,A*2B
$GPGGA,140113.00,4454.1740,N,09325.0143,W,1,09,01.1,00289.8,M,-030.7,M,,*5B
$GPGSA,A,3,21,15,18,24,26,29,06,22,,03,,,02.0,01.1,01.7*04
$GPGSV,3,1,12,21,75,306,39,15,59,075,46,18,57,269,49,24,56,115,46*77
$GPGSV,3,2,12,26,48,059,42,29,26,188,48,06,25,308,41,22,18,257,32*7C
$GPGSV,3,3,12,08,14,060,,03,12,320,33,09,06,144,,16,04,311,*7E
$GPRMC,140114.00,A,4454.1740,N,09325.0143,W,000.0,128.7,300508,001.1,E,A*2C
$GPGGA,140114.00,4454.1740,N,09325.0143,W,1,09,01.1,00289.8,M,-030.7,M,,*5C
$GPGSA,A,3,21,15,18,24,26,29,06,22,,03,,,02.0,01.1,01.7*04
$GPGSV,3,1,12,21,75,306,39,15,59,075,46,18,57,269,49,24,56,115,46*77
$GPGSV,3,2,12,26,48,059,42,29,26,188,48,06,25,308,41,22,18,257,32*7C
$GPGSV,3,3,12,08,14,060,,03,12,320,33,09,06,144,,16,04,311,*7E
$GPRMC,140115.00,A,4454.1740,N,09325.0143,W,000.0,128.7,300508,001.1,E,A*2D
$GPGGA,140115.00,4454.1740,N,09325.0143,W,1,09,01.1,00289.8,M,-030.7,M,,*5D
$GPGSA,A,3,21,15,18,24,26,29,06,22,,03,,,02.0,01.1,01.7*04
$GPGSV,3,1,12,21,75,306,39,15,59,075,46,18,57,269,49,24,56,115,46*77
$GPGSV,3,2,12,26,48,059,42,29,26,188,48,06,25,308,41,22,18,257,32*7C
$GPGSV,3,3,12,08,14,060,,03,12,320,33,09,06,144,,16,04,311,*7E
$GPRMC,140116.00,A,4454.1740,N,09325.0143,W,000.1,128.7,300508,001.1,E,A*2F
$GPGGA,140116.00,4454.1740,N,09325.0143,W,1,09,01.1,00289.8,M,-030.7,M,,*5E
$GPGSA,A,3,21,15,18,24,26,29,06,22,,03,,,02.0,01.1,01.7*04
$GPGSV,3,1,12,21,75,306,39,15,59,075,46,18,57,269,49,24,56,115,46*77
$GPGSV,3,2,12,26,48,059,42,29,26,188,48,06,25,308,41,22,18,257,31*7F
$GPGSV,3,3,12,08,14,060,,03,12,320,33,09,06,144,,16,04,311,*7E
$GPRMC,140117.00,A,4454.1740,N,09325.0143,W,000.0,128.7,300508,001.1,E,A*2F
$GPGGA,140117.00,4454.1740,N,09325.0143,W,1,09,01.1,00289.8,M,-030.7,M,,*5F
$GPGSA,A,3,21,15,18,24,26,29,06,22,,03,,,02.0,01.1,01.7*04
$GPGSV,3,1,12,21,75,306,39,15,59,075,46,18,57,269,49,24,56,115,46*77
$GPGSV,3,2,12,26,48,059,42,29,26,188,48,06,25,308,40,22,18,257,32*7D
$GPGSV,3,3,12,08,14,060,,03,12,320,34,09,06,144,,16,04,311,*79
$GPRMC,140118.00,A,4454.1740,N,09325.0143,W,000.1,128.7,300508,001.1,E,A*21
$GPGGA,140118.00,4454.1740,N,09325.0143,W,1,09,01.1,00289.8,M,-030.7,M,,*50
$GPGSA,A,3,21,15,18,24,26,29,06,22,,03,,,02.0,01.1,01.7*04
$GPGSV,3,1,12,21,75,306,39,15,59,075,46,18,57,269,49,24,56,115,46*77
$GPGSV,3,2,12,26,48,059,42,29,26,188,48,06,25,308,40,22,18,257,33*7C
$GPGSV,3,3,12,08,14,060,,03,12,320,34,09,06,144,,16,04,311,*79
$GPRMC,140119.00,A,4454.1740,N,09325.0143,W,000.1,128.7,300508,001.1,E,A*20
$GPGGA,140119.00,4454.1740,N,09325.0143,W,1,09,01.1,00289.8,M,-030.7,M,,*51
$GPGSA,A,3,21,15,18,24,26,29,06,22,,03,,,02.0,01.1,01.7*04
$GPGSV,3,1,12,21,75,306,39,15,59,075,46,18,57,269,49,24,56,115,45*74
$GPGSV,3,2,12,26,48,059,41,29,26,188,47,06,25,308,40,22,18,257,34*77
$GPGSV,3,3,12,08,14,060,,03,12,320,35,09,06,144,,16,04,311,*78
$GPRMC,140120.00,A,4454.1740,N,09325.0143,W,000.0,128.7,300508,001.1,E,A*2B
$GPGGA,140120.00,4454.1740,N,09325.0143,W,1,09,01.1,00289.8,M,-030.7,M,,*5B
$GPGSA,A,3,21,15,18,24,26,29,06,22,,03,,,02.0,01.1,01.7*04
$GPGSV,3,1,12,21,75,306,39,15,59,075,46,18,57,269,49,24,56,115,44*75
$GPGSV,3,2,12,26,48,059,41,29,26,188,47,06,25,308,40,22,18,257,34*77
$GPGSV,3,3,12,08,14,060,,03,12,320,35,09,06,144,,16,04,311,*78
$GPRMC,140121.00,A,4454.1740,N,09325.0143,W,000.0,128.7,300508,001.1,E,A*2A
$GPGGA,140121.00,4454.1740,N,09325.0143,W,1,09,01.1,00289.8,M,-030.7,M,,*5A
$GPGSA,A,3,21,15,18,24,26,29,06,22,,03,,,02.0,01.1,01.7*04
$GPGSV,3,1,12,21,75,306,39,15,59,075,46,18,57,269,49,24,56,115,44*75
$GPGSV,3,2,12,26,48,059,41,29,26,188,47,06,25,308,40,22,18,257,35*76
$GPGSV,3,3,12,08,14,060,,03,12,320,35,09,06,144,,16,04,311,*78
$GPRMC,140122.00,A,4454.1740,N,09325.0143,W,000.0,128.7,300508,001.1,E,A*29
$GPGGA,140122.00,4454.1740,N,09325.0143,W,1,09,01.1,00289.8,M,-030.7,M,,*59
$GPGSA,A,3,21,15,18,24,26,29,06,22,,03,,,02.0,01.1,01.7*04
$GPGSV,3,1,12,21,75,306,39,15,59,075,46,18,57,269,49,24,56,115,44*75
$GPGSV,3,2,12,26,48,059,41,29,26,188,47,06,25,308,40,22,18,257,36*75
$GPGSV,3,3,12,08,14,060,,03,12,320,35,09,06,144,,16,04,310,*79
$GPRMC,140123.00,A,4454.1740,N,09325.0143,W,000.0,128.7,300508,001.1,E,A*28
$GPGGA,140123.00,4454.1740,N,09325.0143,W,1,09,01.1,00289.8,M,-030.7,M,,*58
$GPGSA,A,3,21,15,18,24,26,29,06,22,,03,,,02.0,01.1,01.7*04
$GPGSV,3,1,12,21,75,306,39,15,59,075,46,18,57,269,49,24,56,115,44*75
$GPGSV,3,2,12,26,48,059,41,29,26,188,47,06,25,308,40,22,18,257,36*75
$GPGSV,3,3,12,08,14,060,,03,12,320,35,09,06,144,,16,04,310,*79
$GPRMC,140124.00,A,4454.1740,N,09325.0143,W,000.0,128.7,300508,001.1,E,A*2F
$GPGGA,140124.00,4454.1740,N,09325.0143,W,1,09,01.1,00289.8,M,-030.7,M,,*5F
$GPGSA,A,3,21,15,18,24,26,29,06,22,,03,,,02.0,01.1,01.7*04
$GPGSV,3,1,12,21,75,306,39,15,59,075,46,18,57,269,49,24,56,115,44*75
$GPGSV,3,2,12,26,48,059,41,29,26,188,47,06,25,308,40,22,18,257,36*75
$GPGSV,3,3,12,08,14,060,,03,12,320,35,09,06,144,,16,04,310,*79
$GPRMC,140125.00,A,4454.1740,N,09325.0143,W,000.0,128.7,300508,001.1,E,A*2E
$GPGGA,140125.00,4454.1740,N,09325.0143,W,1,09,01.1,00289.8,M,-030.7,M,,*5E
$GPGSA,A,3,21,15,18,24,26,29,06,22,,03,,,02.0,01.1,01.7*04
$GPGSV,3,1,12,21,75,306,39,15,59,075,46,18,57,269,49,24,56,115,44*75
$GPGSV,3,2,12,26,48,059,40,29,26,188,47,06,25,308,40,22,18,257,36*74
$GPGSV,3,3,12,08,14,060,,03,12,320,35,09,06,144,,16,04,310,*79
$GPRMC,140126.00,A,4454.1740,N,09325.0143,W,000.0,128.7,300508,001.1,E,A*2D
$GPGGA,140126.00,4454.1740,N,09325.0143,W,1,09,01.1,00289.8,M,-030.7,M,,*5D
$GPGSA,A,3,21,15,18,24,26,29,06,22,,03,,,02.0,01.1,01.7*04
$GPGSV,3,1,12,21,75,306,39,15,59,075,46,18,57,269,49,24,56,115,44*75
$GPGSV,3,2,12,26,48,059,41,29,26,188,47,06,25,308,40,22,18,257,36*75
$GPGSV,3,3,12,08,14,060,,03,12,320,35,09,06,144,,16,04,310,*79
$GPRMC,140127.00,A,4454.1740,N,09325.0143,W,000.0,128.7,300508,001.1,E,A*2C
$GPGGA,140127.00,4454.1740,N,09325.0143,W,1,09,01.1,00289.8,M,-030.7,M,,*5C
$GPGSA,A,3,21,15,18,24,26,29,06,22,,03,,,02.0,01.1,01.7*04
$GPGSV,3,1,12,21,75,306,39,15,59,075,46,18,57,269,49,24,56,115,44*75
$GPGSV,3,2,12,26,48,059,41,29,26,188,47,06,25,308,40,22,18,257,36*75
$GPGSV,3,3,12,08,14,060,,03,12,320,34,09,06,144,,16,04,310,*78
$GPRMC,140128.00,A,4454.1740,N,09325.0143,W,000.0,128.7,300508,001.1,E,A*23
$GPGGA,140128.00,4454.1740,N,09325.0143,W,1,09,01.1,00289.8,M,-030.7,M,,*53
$GPGSA,A,3,21,15,18,24,26,29,06,22,,03,,,02.0,01.1,01.7*04
$GPGSV,3,1,12,21,75,306,38,15,59,075,46,18,57,269,49,24,56,115,44*74
$GPGSV,3,2,12,26,48,059,41,29,26,188,47,06,25,308,40,22,18,257,36*75
$GPGSV,3,3,12,08,14,060,,03,12,320,34,09,06,144,,16,04,310,*78
$GPRMC,140129.00,A,4454.1740,N,09325.0143,W,000.0,128.7,300508,001.1,E,A*22
$GPGGA,140129.00,4454.1740,N,09325.0143,W,1,09,01.1,00289.8,M,-030.7,M,,*52
$GPGSA,A,3,21,15,18,24,26,29,06,22,,03,,,02.0,01.1,01.7*04
$GPGSV,3,1,12,21,75,306,38,15,59,075,46,18,57,269,49,24,56,116,43*70
$GPGSV,3,2,12,26,48,059,41,29,26,188,47,06,25,308,40,22,18,257,36*75
$GPGSV,3,3,12,08,14,060,,03,12,320,34,09,06,144,,16,04,310,*78
$GPRMC,140130.00,A,4454.1740,N,09325.0143,W,000.0,128.7,300508,001.1,E,A*2A
$GPGGA,140130.00,4454.1740,N,09325.0143,W,1,09,01.1,00289.8,M,-030.7,M,,*5A
$GPGSA,A,3,21,15,18,24,26,29,06,22,,03,,,02.0,01.1,01.7*04
$GPGSV,3,1,12,21,75,306,37,15,59,075,46,18,57,269,49,24,56,116,43*7F
$GPGSV,3,2,12,26,48,059,41,29,26,188,46,06,25,308,40,22,18,257,36*74
$GPGSV,3,3,12,08,14,060,,03,12,320,34,09,06,144,,16,04,310,*78
$GPRMC,140131.00,A,4454.1740,N,09325.0143,W,000.0,128.7,300508,001.1,E,A*2B
$GPGGA,140131.00,4454.1740,N,09325.0143,W,1,09,01.1,00289.8,M,-030.7,M,,*5B
$GPGSA,A,3,21,15,18,24,26,29,06,22,,03,,,02.0,01.1,01.7*04
$GPGSV,3,1,12,21,75,306,37,15,59,075,46,18,57,269,49,24,56,116,43*7F
$GPGSV,3,2,12,26,48,058,41,29,26,188,46,06,25,308,40,22,18,257,37*74
$GPGSV,3,3,12,08,14,060,,03,12,320,34,09,06,144,,16,04,310,*78
$GPRMC,140132.00,A,4454.1740,N,09325.0143,W,000.3,128.7,300508,001.1,E,A*2B
$GPGGA,140132.00,4454.1740,N,09325.0143,W,1,09,01.1,00289.8,M,-030.7,M,,*58
$GPGSA,A,3,21,15,18,24,26,29,06,22,,03,,,02.0,01.1,01.7*04
$GPGSV,3,1,12,21,75,306,38,15,59,075,45,18,57,269,49,24,56,116,42*72
$GPGSV,3,2,12,26,48,058,41,29,26,188,46,06,25,308,40,22,18,257,38*7B
$GPGSV,3,3,12,08,14,060,,03,12,320,35,09,06,144,,16,04,310,*79
$GPRMC,140133.00,A,4454.1740,N,09325.0143,W,000.5,094.2,300508,001.1,E,A*2F
$GPGGA,140133.00,4454.1740,N,09325.0143,W,1,09,01.1,00289.8,M,-030.7,M,,*59
$GPGSA,A,3,21,15,18,24,26,29,06,22,,03,,,02.0,01.1,01.7*04
$GPGSV,3,1,12,21,75,306,38,15,59,075,45,18,57,269,49,24,56,116,42*72
$GPGSV,3,2,12,26,48,058,42,29,26,188,46,06,25,308,40,22,18,257,38*78
$GPGSV,3,3,12,08,14,060,,03,12,320,36,09,06,144,,16,04,310,*7A
$GPRMC,140134.00,A,4454.1740,N,09325.0143,W,001.0,066.2,300508,001.1,E,A*21
$GPGGA,140134.00,4454.1740,N,09325.0143,W,1,09,01.1,00289.8,M,-030.7,M,,*5E
$GPGSA,A,3,21,15,18,24,26,29,06,22,,03,,,02.0,01.1,01.7*04
$GPGSV,3,1,12,21,75,306,38,15,59,075,45,18,57,269,49,24,56,116,42*72
$GPGSV,3,2,12,26,48,058,42,29,26,188,45,06,25,308,40,22,18,257,37*74
$GPGSV,3,3,12,08,14,060,,03,12,320,36,09,06,144,,16,04,310,*7A
$GPRMC,140135.00,A,4454.1740,N,09325.0143,W,001.6,043.7,300508,001.1,E,A*24
$GPGGA,140135.00,4454.1740,N,09325.0143,W,1,09,01.1,00289.8,M,-030.7,M,,*5F
$GPGSA,A,3,21,15,18,24,26,29,06,22,,03,,,02.0,01.1,01.7*04
$GPGSV,3,1,12,21,75,306,38,15,59,075,45,18,57,269,49,24,56,116,43*73
$GPGSV,3,2,12,26,48,058,42,29,26,188,44,06,25,308,40,22,18,257,36*74
$GPGSV,3,3,12,08,14,060,,03,12,320,36,09,06,144,,16,04,310,*7A
$GPRMC,140136.00,A,4454.1740,N,09325.0143,W,002.1,025.7,300508,001.1,E,A*23
$GPGGA,140136.00,4454.1740,N,09325.0143,W,1,09,01.1,00289.8,M,-030.7,M,,*5C
$GPGSA,A,3,21,15,18,24,26,29,06,22,,03,,,02.0,01.1,01.7*04
$GPGSV,3,1,12,21,75,306,39,15,59,075,45,18,57,269,49,24,56,116,43*72
$GPGSV,3,2,12,26,48,058,42,29,26,188,44,06,25,308,40,22,18,257,36*74
$GPGSV,3,3,12,08,14,060,,03,12,320,36,09,06,144,,16,04,310,*7A
$GPRMC,140137.00,A,4454.1739,N,09325.0162,W,002.1,011.3,300508,001.1,E,A*2C
$GPGGA,140137.00,4454.1739,N,09325.0162,W,1,09,01.1,00294.7,M,-030.7,M,,*53
$GPGSA,A,3,21,15,18,24,26,29,06,22,,03,,,02.0,01.1,01.7*04
$GPGSV,3,1,12,21,75,306,39,15,59,075,44,18,57,269,49,24,56,116,43*73
$GPGSV,3,2,12,26,48,058,42,29,26,188,44,06,25,308,40,22,18,257,36*74
$GPGSV,3,3,12,08,14,060,,03,12,320,36,09,06,144,,16,04,310,*7A
$GPRMC,140138.00,A,4454.1743,N,09325.0169,W,002.1,342.6,300508,001.1,E,A*25
$GPGGA,140138.00,4454.1743,N,09325.0169,W,1,09,01.1,00295.6,M,-030.7,M,,*5A
$GPGSA,A,3,21,15,18,24,26,29,06,22,,03,,,02.0,01.1,01.7*04
$GPGSV,3,1,12,21,75,306,39,15,59,075,44,18,57,269,49,24,56,116,43*73
$GPGSV,3,2,12,26,48,058,42,29,26,188,44,06,25,308,40,22,18,257,36*74
$GPGSV,3,3,12,08,14,060,,03,12,320,36,09,06,144,,16,04,310,*7A
$GPRMC,140139.00,A,4454.1746,N,09325.0176,W,002.1,328.2,300508,001.1,E,A*27
$GPGGA,140139.00,4454.1746,N,09325.0176,W,1,09,01.1,00295.9,M,-030.7,M,,*5F
$GPGSA,A,3,21,15,18,24,26,29,06,22,,03,,,02.0,01.1,01.7*04
$GPGSV,3,1,12,21,75,306,39,15,59,075,44,18,57,269,49,24,56,116,43*73
$GPGSV,3,2,12,26,48,058,42,29,26,188,44,06,25,308,41,22,18,257,36*75
$GPGSV,3,3,12,08,14,060,,03,12,320,36,09,06,144,,16,04,310,*7A
$GPRMC,140140.00,A,4454.1749,N,09325.0182,W,002.1,321.2,300508,001.1,E,A*24
$GPGGA,140140.00,4454.1749,N,09325.0182,W,1,09,01.1,00295.8,M,-030.7,M,,*54
$GPGSA,A,3,21,15,18,24,26,29,06,22,,03,,,02.0,01.1,01.7*04
$GPGSV,3,1,12,21,75,306,38,15,59,075,44,18,57,269,49,24,56,116,43*72
$GPGSV,3,2,12,26,48,058,42,29,26,188,45,06,25,308,41,22,18,257,35*77
$GPGSV,3,3,12,08,14,060,,03,12,320,35,09,06,144,,16,04,310,*79
$GPRMC,140141.00,A,4454.1752,N,09325.0190,W,002.2,318.1,300508,001.1,E,A*26
$GPGGA,140141.00,4454.1752,N,09325.0190,W,1,08,01.2,00295.7,M,-030.7,M,,*51
$GPGSA,A,3,21,15,18,24,26,29,06,,,03,,,02.1,01.2,01.7*06
$GPGSV,3,1,12,21,75,306,38,15,59,075,44,18,57,269,49,24,56,116,43*72
$GPGSV,3,2,12,26,48,058,42,29,26,188,44,06,25,308,41,22,18,257,34*77
$GPGSV,3,3,12,08,14,060,,03,12,320,34,09,06,144,,16,04,310,*78
$GPRMC,140142.00,A,4454.1760,N,09325.0197,W,002.4,316.7,300508,001.1,E,A*2D
$GPGGA,140142.00,4454.1760,N,09325.0197,W,1,08,01.2,00296.3,M,-030.7,M,,*53
$GPGSA,A,3,21,15,18,24,26,29,06,22,,,,,02.4,01.2,02.0*04
$GPGSV,3,1,12,21,75,306,39,15,59,075,43,18,57,269,49,24,56,116,42*75
$GPGSV,3,2,12,26,48,058,42,29,26,188,45,06,25,308,39,22,18,257,32*7F
$GPGSV,3,3,12,08,14,060,,03,12,320,32,09,06,144,,16,04,310,*7E
$GPRMC,140143.00,A,4454.1767,N,09325.0211,W,002.5,314.7,300508,001.1,E,A*25
$GPGGA,140143.00,4454.1767,N,09325.0211,W,1,09,01.1,00296.9,M,-030.7,M,,*50
$GPGSA,A,3,21,15,18,24,26,29,06,22,,03,,,02.0,01.1,01.7*04
$GPGSV,3,1,12,21,75,306,40,15,59,075,43,18,57,269,48,24,56,116,41*79
$GPGSV,3,2,12,26,48,058,41,29,26,188,45,06,25,308,38,22,18,257,33*7C
$GPGSV,3,3,12,08,14,060,,03,12,320,32,09,06,144,,16,04,310,*7E
$GPRMC,140144.00,A,4454.1773,N,09325.0225,W,003.5,306.3,300508,001.1,E,A*26
$GPGGA,140144.00,4454.1773,N,09325.0225,W,1,09,01.1,00297.2,M,-030.7,M,,*5F
$GPGSA,A,3,21,15,18,24,26,29,06,22,,03,,,02.0,01.1,01.7*04
$GPGSV,3,1,12,21,75,306,40,15,59,075,43,18,57,269,46,24,56,116,41*77
$GPGSV,3,2,12,26,48,058,41,29,26,188,46,06,25,308,37,22,18,257,35*76
$GPGSV,3,3,12,08,14,060,,03,12,320,34,09,06,144,,16,04,310,*78
$GPRMC,140145.00,A,4454.1773,N,09325.0243,W,003.5,294.9,300508,001.1,E,A*27
$GPGGA,140145.00,4454.1773,N,09325.0243,W,1,09,01.1,00297.2,M,-030.7,M,,*5E
$GPGSA,A,3,21,15,18,24,26,29,06,22,,03,,,02.0,01.1,01.7*04
$GPGSV,3,1,12,21,75,306,40,15,59,075,42,18,57,269,45,24,56,116,42*76
$GPGSV,3,2,12,26,48,058,40,29,26,188,45,06,25,308,37,22,18,257,36*77
$GPGSV,3,3,12,08,14,060,,03,12,320,36,09,06,144,,16,04,310,*7A
$GPRMC,140146.00,A,4454.1772,N,09325.0256,W,003.3,283.2,300508,001.1,E,A*2A
$GPGGA,140146.00,4454.1772,N,09325.0256,W,1,09,01.1,00297.0,M,-030.7,M,,*5A
$GPGSA,A,3,21,15,18,24,26,29,06,22,,03,,,02.0,01.1,01.7*04
$GPGSV,3,1,12,21,75,306,41,15,59,075,40,18,57,269,45,24,56,116,44*73
$GPGSV,3,2,12,26,48,058,38,29,26,188,44,06,25,308,39,22,18,257,37*76
$GPGSV,3,3,12,08,14,060,,03,12,320,37,09,06,144,,16,04,310,*7B
$GPRMC,140147.00,A,4454.1772,N,09325.0263,W,000.9,269.3,300508,001.1,E,A*21
$GPGGA,140147.00,4454.1772,N,09325.0263,W,1,09,01.1,00297.4,M,-030.7,M,,*59
$GPGSA,A,3,21,15,18,24,26,29,06,22,,03,,,02.0,01.1,01.7*04
$GPGSV,3,1,12,21,75,306,42,15,59,075,40,18,57,269,46,24,56,116,45*72
$GPGSV,3,2,12,26,48,058,37,29,26,188,44,06,25,307,41,22,18,257,36*78
$GPGSV,3,3,12,08,14,060,,03,12,320,37,09,06,144,30,16,04,310,*78
$GPRMC,140148.00,A,4454.1772,N,09325.0263,W,000.5,263.1,300508,001.1,E,A*2A
$GPGGA,140148.00,4454.1772,N,09325.0263,W,1,09,01.1,00297.4,M,-030.7,M,,*56
$GPGSA,A,3,21,15,18,24,26,29,06,22,,03,,,02.0,01.1,01.7*04
$GPGSV,3,1,12,21,75,306,43,15,59,075,40,18,57,269,47,24,56,116,46*71
$GPGSV,3,2,12,26,48,058,36,29,26,188,44,06,25,307,42,22,18,257,36*7A
$GPGSV,3,3,12,08,14,060,,03,12,320,37,09,06,144,30,16,04,310,*78
$GPRMC,140149.00,A,4454.1772,N,09325.0263,W,000.2,263.1,300508,001.1,E,A*2C
$GPGGA,140149.00,4454.1772,N,09325.0263,W,1,09,01.1,00297.4,M,-030.7,M,,*57
$GPGSA,A,3,21,15,18,24,26,29,06,22,,03,,,02.0,01.1,01.7*04
$GPGSV,3,1,12,21,75,306,44,15,59,075,41,18,57,269,47,24,56,116,46*77
$GPGSV,3,2,12,26,48,058,36,29,26,188,44,06,25,307,42,22,18,257,35*79
$GPGSV,3,3,12,08,03,023,,03,12,320,37,09,06,144,29,16,04,310,*71
$GPRMC,140150.00,A,4454.1772,N,09325.0263,W,000.1,263.1,300508,001.1,E,A*27
$GPGGA,140150.00,4454.1772,N,09325.0263,W,1,09,01.1,00297.4,M,-030.7,M,,*5F
$GPGSA,A,3,21,15,18,24,26,29,06,22,,03,,,02.0,01.1,01.7*04
$GPGSV,3,1,12,21,75,306,44,15,59,075,42,18,57,269,47,24,56,116,46*74
$GPGSV,3,2,12,26,48,058,36,29,26,188,44,06,25,307,42,22,18,257,34*78
$GPGSV,3,3,12,08,03,023,,03,12,320,38,09,07,144,29,16,04,310,*7F
$GPRMC,140151.00,A,4454.1772,N,09325.0263,W,000.7,290.7,300508,001.1,E,A*2A
$GPGGA,140151.00,4454.1772,N,09325.0263,W,1,09,01.1,00297.4,M,-030.7,M,,*5E
$GPGSA,A,3,21,15,18,24,26,29,06,22,03,,,,02.0,01.1,01.7*04
$GPGSV,3,1,12,21,75,306,44,15,59,075,42,18,57,269,47,24,56,116,46*74
$GPGSV,3,2,12,26,48,058,36,29,26,188,44,06,25,307,43,22,18,257,33*7E
$GPGSV,3,3,12,03,12,320,40,09,07,144,35,16,04,310,,08,03,023,*7D
$GPRMC,140152.00,A,4454.1772,N,09325.0263,W,001.7,308.9,300508,001.1,E,A*26
$GPGGA,140152.00,4454.1772,N,09325.0263,W,1,09,01.1,00297.4,M,-030.7,M,,*5D
$GPGSA,A,3,21,15,18,24,26,29,06,22,03,,,,02.0,01.1,01.7*04
$GPGSV,3,1,12,21,75,306,44,15,59,075,43,18,57,269,47,24,56,116,45*76
$GPGSV,3,2,12,26,48,058,37,29,26,188,42,06,25,307,43,22,18,257,33*79
$GPGSV,3,3,12,03,12,320,39,09,07,144,35,16,04,310,,08,03,023,*73
$GPRMC,140153.00,A,4454.1772,N,09325.0263,W,002.4,340.9,300508,001.1,E,A*2B
$GPGGA,140153.00,4454.1772,N,09325.0263,W,1,09,01.1,00297.4,M,-030.7,M,,*5C
$GPGSA,A,3,21,15,18,24,26,29,06,22,03,,,,02.0,01.1,01.7*04
$GPGSV,3,1,12,21,75,306,44,15,59,075,44,18,57,269,46,24,56,116,45*70
$GPGSV,3,2,12,26,48,058,38,29,26,188,41,06,25,307,41,22,18,257,35*71
$GPGSV,3,3,12,03,12,320,38,09,07,144,33,16,04,310,,08,03,023,*74
$GPRMC,140154.00,A,4454.1804,N,09325.0255,W,005.1,350.1,300508,001.1,E,A*2C
$GPGGA,140154.00,4454.1804,N,09325.0255,W,1,09,01.1,00298.6,M,-030.7,M,,*5D
$GPGSA,A,3,21,15,18,24,26,29,06,22,03,,,,02.0,01.1,01.7*04
$GPGSV,3,1,12,21,75,306,44,15,59,075,43,18,57,269,45,24,56,116,46*77
$GPGSV,3,2,12,26,48,058,41,29,26,188,40,06,25,307,41,22,18,257,38*73
$GPGSV,3,3,12,03,12,320,37,09,07,144,34,16,04,310,,08,03,023,*7C
$GPRMC,140155.00,A,4454.1825,N,09325.0260,W,005.6,344.5,300508,001.1,E,A*2E
$GPGGA,140155.00,4454.1825,N,09325.0260,W,1,09,01.1,00298.5,M,-030.7,M,,*5A
$GPGSA,A,3,21,15,18,24,26,29,06,22,03,,,,02.0,01.1,01.7*04
$GPGSV,3,1,12,21,75,306,45,15,59,075,43,18,57,269,45,24,56,116,47*77
$GPGSV,3,2,12,26,48,058,42,29,26,188,41,06,25,307,39,22,18,257,38*7E
$GPGSV,3,3,12,03,12,320,37,09,07,144,35,16,04,310,,08,03,023,*7D
$GPRMC,140156.00,A,4454.1850,N,09325.0275,W,010.4,338.6,300508,001.1,E,A*25
$GPGGA,140156.00,4454.1850,N,09325.0275,W,1,08,01.2,00298.3,M,-030.7,M,,*5B
$GPGSA,A,3,21,15,18,24,26,29,06,22,,,,,02.4,01.2,02.0*04
$GPGSV,3,1,12,21,75,306,45,15,59,074,44,18,57,269,45,24,56,116,47*71
$GPGSV,3,2,12,26,48,058,44,29,26,188,40,06,25,307,39,22,18,257,39*78
$GPGSV,3,3,12,03,12,320,36,09,07,144,34,16,04,310,,08,03,023,*7D
$GPRMC,140157.00,A,4454.1878,N,09325.0298,W,010.8,333.6,300508,001.1,E,A*2A
$GPGGA,140157.00,4454.1878,N,09325.0298,W,1,09,01.1,00297.7,M,-030.7,M,,*5A
$GPGSA,A,3,21,15,18,24,26,29,06,22,03,,,,02.0,01.1,01.7*04
$GPGSV,3,1,12,21,75,306,45,15,59,074,44,18,57,269,45,24,56,116,47*71
$GPGSV,3,2,12,26,48,058,45,29,26,188,38,06,25,307,39,22,18,257,39*76
$GPGSV,3,3,12,03,12,320,38,09,07,144,33,16,04,310,,08,03,023,*74
$GPRMC,140158.00,A,4454.1905,N,09325.0321,W,011.2,330.8,300508,001.1,E,A*2B
$GPGGA,140158.00,4454.1905,N,09325.0321,W,1,08,01.5,00297.4,M,-030.7,M,,*5B
$GPGSA,A,3,21,15,18,24,26,,06,22,03,,,,02.5,01.5,02.0*0A
$GPGSV,3,1,12,21,75,306,45,15,59,074,44,18,57,269,45,24,56,116,47*71
$GPGSV,3,2,12,26,48,058,46,29,26,188,35,06,25,307,40,22,18,257,38*77
$GPGSV,3,3,12,03,12,320,39,09,07,144,32,16,04,310,,08,03,023,*74
$GPRMC,140159.00,A,4454.1932,N,09325.0344,W,011.1,329.2,300508,001.1,E,A*2C
$GPGGA,140159.00,4454.1932,N,09325.0344,W,1,08,01.5,00296.7,M,-030.7,M,,*5F
$GPGSA,A,3,21,15,18,24,26,,06,22,03,,,,02.5,01.5,02.0*0A
$GPGSV,3,1,12,21,75,306,45,15,59,074,44,18,57,269,45,24,56,116,47*71
$GPGSV,3,2,12,26,48,058,47,29,26,188,32,06,25,307,41,22,18,257,38*70
$GPGSV,3,3,12,03,12,320,40,09,07,144,32,16,04,310,,08,03,023,*7A
$GPRMC,140200.00,A,4454.1956,N,09325.0368,W,011.0,328.3,300508,001.1,E,A*2E
$GPGGA,140200.00,4454.1956,N,09325.0368,W,1,08,01.5,00296.0,M,-030.7,M,,*5B
$GPGSA,A,3,21,15,18,24,26,,06,22,03,,,,02.5,01.5,02.0*0A
$GPGSV,3,1,12,21,75,306,45,15,59,074,43,18,57,269,45,24,56,116,47*76
$GPGSV,3,2,12,26,48,058,47,29,26,188,30,06,25,307,41,22,18,257,38*72
$GPGSV,3,3,12,03,12,320,41,09,07,144,33,16,04,310,,08,03,023,*7A
$GPRMC,140201.00,A,4454.1979,N,09325.0390,W,010.9,327.8,300508,001.1,E,A*29
$GPGGA,140201.00,4454.1979,N,09325.0390,W,1,08,01.5,00295.5,M,-030.7,M,,*56
$GPGSA,A,3,21,15,18,24,26,,06,22,03,,,,02.5,01.5,02.0*0A
$GPGSV,3,1,12,21,75,306,45,15,59,074,43,18,57,269,45,24,56,116,47*76
$GPGSV,3,2,12,26,48,058,47,29,26,188,28,06,25,307,41,22,18,257,38*7B
$GPGSV,3,3,12,03,12,320,42,09,07,144,33,16,04,310,,08,03,023,*79
$GPRMC,140202.00,A,4454.2010,N,09325.0419,W,009.9,327.3,300508,001.1,E,A*2A
$GPGGA,140202.00,4454.2010,N,09325.0419,W,1,09,01.1,00296.9,M,-030.7,M,,*5C
$GPGSA,A,3,21,15,18,24,26,29,06,22,03,,,,02.0,01.1,01.7*04
$GPGSV,3,1,12,21,75,306,45,15,59,074,43,18,57,269,45,24,56,116,47*76
$GPGSV,3,2,12,26,48,058,48,29,26,188,30,06,25,307,41,22,18,257,38*7D
$GPGSV,3,3,12,03,12,320,42,09,07,144,33,16,04,310,,08,03,023,*79
$GPRMC,140203.00,A,4454.2031,N,09325.0440,W,009.1,324.6,300508,001.1,E,A*2A
$GPGGA,140203.00,4454.2031,N,09325.0440,W,1,09,01.1,00297.4,M,-030.7,M,,*5E
$GPGSA,A,3,21,15,18,24,26,29,06,22,03,,,,02.0,01.1,01.7*04
$GPGSV,3,1,12,21,75,306,45,15,59,074,43,18,57,269,45,24,56,116,47*76
$GPGSV,3,2,12,26,48,058,48,29,26,188,33,06,25,307,41,22,18,257,38*7E
$GPGSV,3,3,12,03,12,320,41,09,07,144,34,16,04,310,,08,03,023,*7D
$GPRMC,140204.00,A,4454.2044,N,09325.0464,W,008.6,313.0,300508,001.1,E,A*2D
$GPGGA,140204.00,4454.2044,N,09325.0464,W,1,09,01.1,00297.3,M,-030.7,M,,*5A
$GPGSA,A,3,21,15,18,24,26,29,06,22,03,,,,02.0,01.1,01.7*04
$GPGSV,3,1,12,21,75,306,45,15,59,074,44,18,57,269,44,24,55,116,46*72
$GPGSV,3,2,12,26,48,058,49,29,26,188,37,06,25,307,41,22,18,257,38*7B
$GPGSV,3,3,12,03,12,320,40,09,07,144,32,16,04,310,,08,03,023,*7A
$GPRMC,140205.00,A,4454.2048,N,09325.0495,W,008.7,292.2,300508,001.1,E,A*25
$GPGGA,140205.00,4454.2048,N,09325.0495,W,1,09,01.1,00296.8,M,-030.7,M,,*53
$GPGSA,A,3,21,15,18,24,26,29,06,22,03,,,,02.0,01.1,01.7*04
$GPGSV,3,1,12,21,75,306,46,15,59,074,45,18,57,269,43,24,55,116,46*77
$GPGSV,3,2,12,26,48,058,49,29,26,188,39,06,25,307,40,22,18,257,38*74
$GPGSV,3,3,12,03,12,320,38,09,07,144,34,16,04,310,,08,03,023,*73
$GPRMC,140206.00,A,4454.2042,N,09325.0531,W,010.1,268.5,300508,001.1,E,A*2E
$GPGGA,140206.00,4454.2042,N,09325.0531,W,1,09,01.1,00296.4,M,-030.7,M,,*59
$GPGSA,A,3,21,15,18,24,26,29,06,22,03,,,,02.0,01.1,01.7*04
$GPGSV,3,1,12,21,75,306,47,15,59,074,45,18,57,269,42,24,55,116,46*77
$GPGSV,3,2,12,26,48,058,48,29,26,188,39,06,25,307,40,22,18,257,39*74
$GPGSV,3,3,12,03,12,320,39,09,07,144,35,16,04,310,,08,03,023,*73
$GPRMC,140207.00,A,4454.2028,N,09325.0567,W,010.5,249.3,300508,001.1,E,A*21
$GPGGA,140207.00,4454.2028,N,09325.0567,W,1,09,01.1,00296.4,M,-030.7,M,,*57
$GPGSA,A,3,21,15,18,24,26,29,06,22,03,,,,02.0,01.1,01.7*04
$GPGSV,3,1,12,21,75,306,47,15,59,074,44,18,57,269,43,24,55,116,47*76
$GPGSV,3,2,12,26,48,058,48,29,26,188,40,06,25,307,41,22,18,257,38*7A
$GPGSV,3,3,12,03,12,320,40,09,07,144,36,16,04,310,,08,03,023,*7E
$GPRMC,140208.00,A,4454.2009,N,09325.0596,W,009.9,237.0,300508,001.1,E,A*2D
$GPGGA,140208.00,4454.2009,N,09325.0596,W,1,09,01.1,00296.8,M,-030.7,M,,*59
$GPGSA,A,3,21,15,18,24,26,29,06,22,03,,,,02.0,01.1,01.7*04
$GPGSV,3,1,12,21,75,306,46,15,59,074,44,18,57,269,44,24,55,116,48*7F
$GPGSV,3,2,12,26,48,058,47,29,26,188,39,06,25,307,42,22,18,257,38*78
$GPGSV,3,3,12,03,12,320,41,09,07,144,36,16,04,310,,08,03,023,*7F
$GPRMC,140209.00,A,4454.1991,N,09325.0622,W,008.7,230.1,300508,001.1,E,A*22
$GPGGA,140209.00,4454.1991,N,09325.0622,W,1,09,01.1,00297.0,M,-030.7,M,,*56
$GPGSA,A,3,21,15,18,24,26,29,06,22,03,,,,02.0,01.1,01.7*04
$GPGSV,3,1,12,21,75,306,45,15,59,074,44,18,57,269,44,24,55,116,48*7C
$GPGSV,3,2,12,26,48,058,45,29,26,188,38,06,25,307,42,22,18,257,37*74
$GPGSV,3,3,12,03,12,320,41,09,07,144,35,16,04,310,,08,03,023,*7C
$GPRMC,140210.00,A,4454.1976,N,09325.0641,W,007.5,226.6,300508,001.1,E,A*2B
$GPGGA,140210.00,4454.1976,N,09325.0641,W,1,08,01.5,00297.3,M,-030.7,M,,*54
$GPGSA,A,3,21,15,18,24,26,,06,22,03,,,,02.5,01.5,02.0*0A
$GPGSV,3,1,12,21,75,306,44,15,59,074,44,18,57,269,44,24,55,116,48*7D
$GPGSV,3,2,12,26,48,058,44,29,26,188,35,06,25,307,42,22,18,257,35*7A
$GPGSV,3,3,12,03,12,320,41,09,07,144,35,16,04,310,,08,03,023,*7C
$GPRMC,140211.00,A,4454.1968,N,09325.0648,W,005.2,224.4,300508,001.1,E,A*29
$GPGGA,140211.00,4454.1968,N,09325.0648,W,1,08,01.2,00296.9,M,-030.7,M,,*5F
$GPGSA,A,3,21,15,18,24,26,29,06,,03,,,,02.0,01.2,01.7*07
$GPGSV,3,1,12,21,75,306,43,15,59,074,44,18,57,269,44,24,55,116,48*7A
$GPGSV,3,2,12,26,48,058,43,29,26,188,32,06,25,307,42,22,18,257,33*7C
$GPGSV,3,3,12,03,12,320,41,09,07,144,35,16,04,310,,08,03,023,*7C
$GPRMC,140212.00,A,4454.1969,N,09325.0649,W,002.9,223.4,300508,001.1,E,A*21
$GPGGA,140212.00,4454.1969,N,09325.0649,W,1,07,02.4,00297.3,M,-030.7,M,,*5D
$GPGSA,A,3,21,15,18,24,26,,06,,03,,,,03.8,02.4,02.9*0D
$GPGSV,3,1,12,21,75,306,43,15,59,074,44,18,57,269,44,24,55,116,48*7A
$GPGSV,3,2,12,26,48,058,42,29,26,188,29,06,25,307,42,22,18,257,31*75
$GPGSV,3,3,12,03,12,320,41,09,07,144,35,16,04,310,,08,03,023,*7C
$GPRMC,140213.00,A,4454.1968,N,09325.0652,W,003.0,222.0,300508,001.1,E,A*26
$GPGGA,140213.00,4454.1968,N,09325.0652,W,1,09,01.1,00298.1,M,-030.7,M,,*52
$GPGSA,A,3,21,15,18,24,26,29,06,22,03,,,,02.0,01.1,01.7*04
$GPGSV,3,1,12,21,75,306,43,15,59,074,44,18,57,269,44,24,55,116,48*7A
$GPGSV,3,2,12,26,48,058,42,29,26,188,29,06,25,307,42,22,18,257,30*74
$GPGSV,3,3,12,03,12,320,41,09,07,144,32,16,04,310,,08,03,023,*7B
$GPRMC,140214.00,A,4454.1958,N,09325.0658,W,003.4,219.4,300508,001.1,E,A*20
$GPGGA,140214.00,4454.1958,N,09325.0658,W,1,09,01.1,00297.5,M,-030.7,M,,*57
$GPGSA,A,3,21,15,18,24,26,29,06,22,03,,,,02.0,01.1,01.7*04
$GPGSV,3,1,12,21,75,306,43,15,59,074,45,18,57,269,43,24,55,116,49*7D
$GPGSV,3,2,12,26,48,058,43,29,26,188,32,06,25,307,42,22,18,257,33*7C
$GPGSV,3,3,12,03,12,320,41,09,07,144,30,16,04,310,,08,03,023,*79
$GPRMC,140215.00,A,4454.1938,N,09325.0669,W,005.1,209.8,300508,001.1,E,A*2B
$GPGGA,140215.00,4454.1938,N,09325.0669,W,1,09,01.1,00297.4,M,-030.7,M,,*53
$GPGSA,A,3,21,15,18,24,26,29,06,22,03,,,,02.0,01.1,01.7*04
$GPGSV,3,1,12,21,75,306,42,15,59,074,45,18,57,269,44,24,55,116,48*7A
$GPGSV,3,2,12,26,48,058,45,29,26,188,36,06,25,307,43,22,18,257,35*79
$GPGSV,3,3,12,03,12,320,42,09,07,144,31,16,04,310,,08,03,023,*7B
$GPRMC,140216.00,A,4454.1917,N,09325.0674,W,008.8,193.5,300508,001.1,E,A*20
$GPGGA,140216.00,4454.1917,N,09325.0674,W,1,08,01.2,00297.7,M,-030.7,M,,*50
$GPGSA,A,3,21,15,18,24,26,29,06,22,,,,,02.4,01.2,02.0*04
$GPGSV,3,1,12,21,75,306,41,15,59,074,46,18,57,269,44,24,55,116,47*75
$GPGSV,3,2,12,26,48,058,46,29,26,188,37,06,25,307,42,22,18,257,36*79
$GPGSV,3,3,12,03,12,320,40,09,07,144,31,16,04,310,,08,03,023,*79
$GPRMC,140217.00,A,4454.1887,N,09325.0663,W,009.8,175.7,300508,001.1,E,A*24
$GPGGA,140217.00,4454.1887,N,09325.0663,W,1,08,01.5,00296.1,M,-030.7,M,,*5F
$GPGSA,A,3,21,15,18,24,26,,06,22,03,,,,02.5,01.5,02.0*0A
$GPGSV,3,1,12,21,75,306,41,15,59,074,45,18,57,269,44,24,55,116,47*76
$GPGSV,3,2,12,26,48,058,46,29,26,188,36,06,25,307,41,22,18,257,37*7A
$GPGSV,3,3,12,03,12,320,39,09,07,144,32,16,04,310,,08,03,023,*74
$GPRMC,140218.00,A,4454.1858,N,09325.0642,W,010.7,165.2,300508,001.1,E,A*29
$GPGGA,140218.00,4454.1858,N,09325.0642,W,1,08,01.5,00297.5,M,-030.7,M,,*54
$GPGSA,A,3,21,15,18,24,26,,06,22,03,,,,02.5,01.5,02.0*0A
$GPGSV,3,1,12,21,75,306,41,15,59,074,45,18,57,269,45,24,55,116,46*76
$GPGSV,3,2,12,26,48,058,45,29,26,188,34,06,25,307,40,22,18,257,36*7B
$GPGSV,3,3,12,03,12,320,39,09,07,144,33,16,04,310,,08,03,023,*75
$GPRMC,140219.00,A,4454.1814,N,09325.0617,W,011.4,160.1,300508,001.1,E,A*24
$GPGGA,140219.00,4454.1814,N,09325.0617,W,1,08,01.5,00297.0,M,-030.7,M,,*58
$GPGSA,A,3,21,15,18,24,26,,06,22,03,,,,02.5,01.5,02.0*0A
$GPGSV,3,1,12,21,75,306,41,15,59,074,45,18,57,269,46,24,55,116,45*76
$GPGSV,3,2,12,26,48,058,44,29,26,188,32,06,25,307,38,22,18,257,35*70
$GPGSV,3,3,12,03,12,320,39,09,07,144,33,16,04,310,,08,03,023,*75
$GPRMC,140220.00,A,4454.1769,N,09325.0590,W,013.7,158.4,300508,001.1,E,A*28
$GPGGA,140220.00,4454.1769,N,09325.0590,W,1,09,01.1,00296.9,M,-030.7,M,,*56
$GPGSA,A,3,21,15,18,24,26,29,06,22,03,,,,02.0,01.1,01.7*04
$GPGSV,3,1,12,21,75,306,41,15,59,074,45,18,57,269,46,24,55,116,44*77
$GPGSV,3,2,12,26,48,058,45,29,26,188,31,06,25,307,36,22,18,257,37*7E
$GPGSV,3,3,12,03,12,320,37,09,07,144,33,16,04,310,,08,03,023,*7B
$GPRMC,140221.00,A,4454.1721,N,09325.0567,W,017.9,160.7,300508,001.1,E,A*2F
$GPGGA,140221.00,4454.1721,N,09325.0567,W,1,07,01.7,00296.6,M,-030.7,M,,*54
$GPGSA,A,3,21,15,18,24,26,,06,22,,,,,02.8,01.7,02.2*04
$GPGSV,3,1,12,21,75,306,42,15,59,074,45,18,57,269,45,24,55,116,44*77
$GPGSV,3,2,12,26,48,058,45,29,26,188,31,06,25,307,36,22,18,257,39*70
$GPGSV,3,3,12,03,12,320,34,09,07,144,32,16,04,310,,08,03,023,*79
$GPRMC,140222.00,A,4454.1671,N,09325.0549,W,018.6,165.5,300508,001.1,E,A*23
$GPGGA,140222.00,4454.1671,N,09325.0549,W,1,07,01.6,00296.4,M,-030.7,M,,*5C
$GPGSA,A,3,21,15,18,24,26,,,22,03,,,,02.5,01.6,02.0*0F
$GPGSV,3,1,12,21,75,306,42,15,59,074,45,18,57,269,45,24,55,116,45*76
$GPGSV,3,2,12,26,48,058,45,29,26,188,30,06,26,307,35,22,18,257,40*7F
$GPGSV,3,3,12,03,12,320,34,09,07,144,32,16,04,310,,08,03,023,*79
$GPRMC,140223.00,A,4454.1617,N,09325.0539,W,019.9,170.7,300508,001.1,E,A*2D
$GPGGA,140223.00,4454.1617,N,09325.0539,W,1,07,01.3,00295.4,M,-030.7,M,,*5C
$GPGSA,A,3,21,15,18,24,26,29,06,,,,,,02.5,01.3,02.2*06
$GPGSV,3,1,12,21,75,306,42,15,59,074,46,18,57,269,43,24,55,116,45*73
$GPGSV,3,2,12,26,48,058,45,29,26,188,33,06,26,307,36,22,18,257,40*7F
$GPGSV,3,3,12,03,12,320,33,09,07,144,31,16,04,310,,08,03,023,*7D
$GPRMC,140224.00,A,4454.1561,N,09325.0536,W,020.1,174.9,300508,001.1,E,A*2F
$GPGGA,140224.00,4454.1561,N,09325.0536,W,1,08,01.2,00294.6,M,-030.7,M,,*5B
$GPGSA,A,3,21,15,18,24,26,29,06,22,,,,,02.4,01.2,02.0*04
$GPGSV,3,1,12,21,75,306,42,15,59,074,46,18,57,269,43,24,55,116,45*73
$GPGSV,3,2,12,26,48,058,45,29,26,188,35,06,26,307,36,22,18,257,38*76
$GPGSV,3,3,12,03,12,320,31,09,07,144,29,16,04,310,,08,03,023,*76
$GPRMC,140225.00,A,4454.1496,N,09325.0534,W,023.2,177.6,300508,001.1,E,A*29
$GPGGA,140225.00,4454.1496,N,09325.0534,W,1,06,02.1,00294.8,M,-030.7,M,,*51
$GPGSA,A,3,21,15,18,24,26,29,,,,,,,04.7,02.1,04.2*03
$GPGSV,3,1,12,21,75,306,42,15,59,074,46,18,57,269,42,24,55,116,46*71
$GPGSV,3,2,12,26,48,058,44,29,26,188,37,06,26,307,34,22,18,257,36*79
$GPGSV,3,3,12,03,12,320,29,09,07,144,27,16,04,310,,08,03,023,*71
$GPRMC,140226.00,A,4454.1428,N,09325.0533,W,023.3,179.0,300508,001.1,E,A*21
$GPGGA,140226.00,4454.1428,N,09325.0533,W,1,07,01.5,00293.8,M,-030.7,M,,*51
$GPGSA,A,3,21,15,18,24,26,29,,22,,,,,02.8,01.5,02.4*0D
$GPGSV,3,1,12,21,75,306,42,15,59,074,46,18,57,269,42,24,55,116,46*71
$GPGSV,3,2,12,26,48,058,43,29,26,188,39,06,26,307,32,22,18,257,36*76
$GPGSV,3,3,12,03,12,320,27,09,07,144,25,16,04,310,,08,03,023,*7D
$GPRMC,140227.00,A,4454.1364,N,09325.0533,W,023.6,179.5,300508,001.1,E,A*2F
$GPGGA,140227.00,4454.1364,N,09325.0533,W,1,06,01.6,00294.5,M,-030.7,M,,*57
$GPGSA,A,3,21,15,,24,26,29,,22,,,,,03.2,01.6,02.8*00
$GPGSV,3,1,12,21,75,306,41,15,59,074,46,18,57,269,41,24,55,116,46*71
$GPGSV,3,2,12,26,48,058,42,29,26,188,39,06,26,307,30,22,18,257,35*76
$GPGSV,3,3,12,03,12,320,26,09,07,144,25,16,04,310,,08,03,023,*7C
$GPRMC,140228.00,A,4454.1294,N,09325.0533,W,023.6,179.5,300508,001.1,E,A*2E
$GPGGA,140228.00,4454.1294,N,09325.0533,W,1,07,01.5,00294.7,M,-030.7,M,,*56
$GPGSA,A,3,21,15,18,24,26,29,,22,,,,,02.8,01.5,02.4*0D
$GPGSV,3,1,12,21,75,306,41,15,59,074,46,18,57,269,42,24,55,116,46*72
$GPGSV,3,2,12,26,48,058,42,29,26,188,39,06,26,307,28,22,18,257,36*7C
$GPGSV,3,3,12,03,12,320,26,09,07,144,23,16,04,310,,08,03,023,*7A
$GPRMC,140229.00,A,4454.1227,N,09325.0533,W,022.3,179.6,300508,001.1,E,A*20
$GPGGA,140229.00,4454.1227,N,09325.0533,W,1,05,02.5,00295.7,M,-030.7,M,,*5F
$GPGSA,A,3,21,15,,24,26,29,,,,,,,04.9,02.5,04.2*00
$GPGSV,3,1,12,21,75,306,40,15,59,074,46,18,57,269,41,24,55,116,46*70
$GPGSV,3,2,12,26,48,058,42,29,26,188,40,06,26,307,26,22,18,257,36*7C
$GPGSV,3,3,12,03,12,320,24,09,07,144,21,16,04,310,,08,03,023,*7A
$GPRMC,140230.00,A,4454.1169,N,09325.0532,W,020.4,179.6,300508,001.1,E,A*25
$GPGGA,140230.00,4454.1169,N,09325.0532,W,1,06,02.1,00294.0,M,-030.7,M,,*5E
$GPGSA,A,3,21,15,18,24,26,29,,,,,,,04.7,02.1,04.2*03
$GPGSV,3,1,12,21,75,306,41,15,59,074,46,18,57,269,42,24,55,116,46*72
$GPGSV,3,2,12,26,48,058,42,29,26,188,41,06,26,307,26,22,18,257,35*7E
$GPGSV,3,3,12,03,12,320,23,09,07,144,21,16,04,310,,08,03,023,*7D
$GPRMC,140231.00,A,4454.1114,N,09325.0533,W,018.5,180.0,300508,001.1,E,A*25
$GPGGA,140231.00,4454.1114,N,09325.0533,W,1,07,01.5,00293.9,M,-030.7,M,,*5C
$GPGSA,A,3,21,15,18,24,26,29,,22,,,,,02.8,01.5,02.4*0D
$GPGSV,3,1,12,21,75,306,41,15,58,074,46,18,57,269,43,24,55,116,46*72
$GPGSV,3,2,12,26,48,058,41,29,26,188,41,06,26,307,28,22,18,257,37*71
$GPGSV,3,3,12,03,12,320,23,09,07,144,21,16,04,310,,08,03,023,*7D
$GPRMC,140232.00,A,4454.1070,N,09325.0535,W,015.6,180.0,300508,001.1,E,A*2D
$GPGGA,140232.00,4454.1070,N,09325.0535,W,1,08,01.2,00294.0,M,-030.7,M,,*5C
$GPGSA,A,3,21,15,18,24,26,29,06,22,,,,,02.4,01.2,02.0*04
$GPGSV,3,1,12,21,75,306,42,15,58,074,46,18,57,269,43,24,55,116,46*71
$GPGSV,3,2,12,26,48,058,41,29,26,188,41,06,26,307,29,22,18,257,37*70
$GPGSV,3,3,12,03,12,320,22,09,07,144,22,16,03,310,,08,03,023,*78
$GPRMC,140233.00,A,4454.1033,N,09325.0536,W,012.4,180.1,300508,001.1,E,A*2C
$GPGGA,140233.00,4454.1033,N,09325.0536,W,1,07,01.3,00292.6,M,-030.7,M,,*57
$GPGSA,A,3,21,15,18,24,26,29,06,,,,,,02.5,01.3,02.2*06
$GPGSV,3,1,12,21,75,306,42,15,58,074,46,18,57,270,43,24,55,116,46*79
$GPGSV,3,2,12,26,48,058,42,29,26,188,41,06,26,307,31,22,18,257,36*7B
$GPGSV,3,3,12,03,12,320,22,09,07,144,23,08,03,023,,16,03,310,*79
$GPRMC,140234.00,A,4454.1007,N,09325.0535,W,010.0,180.9,300508,001.1,E,A*21
$GPGGA,140234.00,4454.1007,N,09325.0535,W,1,08,01.2,00291.9,M,-030.7,M,,*56
$GPGSA,A,3,21,15,18,24,26,29,06,22,,,,,02.4,01.2,02.0*04
$GPGSV,3,1,12,21,75,306,42,15,58,074,46,18,57,270,43,24,55,116,46*79
$GPGSV,3,2,12,26,48,058,43,29,26,188,41,06,26,307,33,22,18,257,37*79
$GPGSV,3,3,12,03,12,320,22,09,07,144,24,08,03,023,,16,03,310,*7E
$GPRMC,140235.00,A,4454.0980,N,09325.0537,W,008.6,183.7,300508,001.1,E,A*27
$GPGGA,140235.00,4454.0980,N,09325.0537,W,1,07,01.5,00292.4,M,-030.7,M,,*54
$GPGSA,A,3,21,15,18,24,26,29,,22,,,,,02.8,01.5,02.4*0D
$GPGSV,3,1,12,21,75,306,42,15,58,074,46,18,57,270,42,24,55,116,46*78
$GPGSV,3,2,12,26,48,058,43,29,26,188,41,06,26,307,32,22,18,257,39*76
$GPGSV,3,3,12,03,12,320,23,09,07,144,27,08,03,023,,16,03,310,*7C
$GPRMC,140236.00,A,4454.0967,N,09325.0543,W,006.0,187.4,300508,001.1,E,A*21
$GPGGA,140236.00,4454.0967,N,09325.0543,W,1,08,01.2,00292.8,M,-030.7,M,,*59
$GPGSA,A,3,21,15,18,24,26,29,06,22,,,,,02.4,01.2,02.0*04
$GPGSV,3,1,12,21,75,306,42,15,58,074,46,18,57,270,43,24,55,116,46*79
$GPGSV,3,2,12,26,48,058,44,29,26,188,42,06,26,307,31,22,18,257,39*71
$GPGSV,3,3,12,03,12,320,26,09,07,144,27,08,03,023,,16,03,310,*79
$GPRMC,140237.00,A,4454.0963,N,09325.0548,W,003.7,189.4,300508,001.1,E,A*23
$GPGGA,140237.00,4454.0963,N,09325.0548,W,1,07,01.5,00293.2,M,-030.7,M,,*54
$GPGSA,A,3,21,15,18,24,26,29,,22,,,,,02.8,01.5,02.4*0D
$GPGSV,3,1,12,21,75,306,42,15,58,074,46,18,57,270,44,24,55,116,45*7D
$GPGSV,3,2,12,26,48,058,45,29,26,188,42,06,26,307,31,22,18,258,40*71
$GPGSV,3,3,12,03,12,320,27,09,07,144,26,08,03,023,,16,03,310,*79
$GPRMC,140238.00,A,4454.0958,N,09325.0550,W,003.7,191.6,300508,001.1,E,A*26
$GPGGA,140238.00,4454.0958,N,09325.0550,W,1,09,01.1,00293.9,M,-030.7,M,,*5B
$GPGSA,A,3,21,15,18,24,26,29,06,22,03,,,,02.0,01.1,01.7*04
$GPGSV,3,1,12,21,75,306,41,15,58,074,46,18,57,270,45,24,55,116,45*7F
$GPGSV,3,2,12,26,48,058,46,29,26,188,42,06,26,307,31,22,18,258,41*73
$GPGSV,3,3,12,03,12,320,28,09,07,144,30,08,03,023,,16,03,310,*71
$GPRMC,140239.00,A,4454.0951,N,09325.0557,W,004.1,197.5,300508,001.1,E,A*2D
$GPGGA,140239.00,4454.0951,N,09325.0557,W,1,08,01.1,00294.4,M,-030.7,M,,*5F
$GPGSA,A,3,21,15,18,24,26,29,,22,03,,,,02.0,01.1,01.7*02
$GPGSV,3,1,12,21,75,306,41,15,58,074,46,18,57,270,44,24,55,116,45*7E
$GPGSV,3,2,12,26,48,058,47,29,26,188,43,06,26,307,30,22,18,258,41*72
$GPGSV,3,3,12,03,12,320,29,09,07,144,32,08,03,023,,16,03,310,*72
$GPRMC,140240.00,A,4454.0938,N,09325.0573,W,004.4,209.2,300508,001.1,E,A*2C
$GPGGA,140240.00,4454.0938,N,09325.0573,W,1,08,01.1,00294.3,M,-030.7,M,,*5F
$GPGSA,A,3,21,15,18,24,26,29,,22,03,,,,02.0,01.1,01.7*02
$GPGSV,3,1,12,21,75,306,41,15,58,074,47,18,57,270,43,24,55,116,46*7B
$GPGSV,3,2,12,26,48,058,47,29,26,188,41,06,26,307,28,22,18,258,41*79
$GPGSV,3,3,12,03,12,320,30,09,07,144,32,08,03,023,,16,03,310,*7A
$GPRMC,140241.00,A,4454.0923,N,09325.0600,W,006.2,224.6,300508,001.1,E,A*2F
$GPGGA,140241.00,4454.0923,N,09325.0600,W,1,08,01.2,00294.7,M,-030.7,M,,*54
$GPGSA,A,3,21,15,18,24,26,29,06,22,,,,,02.4,01.2,02.0*04
$GPGSV,3,1,12,21,75,306,42,15,58,074,46,18,57,270,43,24,55,116,46*79
$GPGSV,3,2,12,26,47,058,47,29,26,188,41,06,26,307,32,22,18,258,39*72
$GPGSV,3,3,12,03,12,320,29,09,07,144,31,08,03,023,,16,03,310,*71
$GPRMC,140242.00,A,4454.0914,N,09325.0640,W,008.6,241.9,300508,001.1,E,A*2A
$GPGGA,140242.00,4454.0914,N,09325.0640,W,1,09,01.1,00295.0,M,-030.7,M,,*53
$GPGSA,A,3,21,15,18,24,26,29,06,22,03,,,,02.0,01.1,01.7*04
$GPGSV,3,1,12,21,75,306,43,15,58,074,45,18,57,270,43,24,55,116,47*7A
$GPGSV,3,2,12,26,47,058,48,29,26,188,40,06,26,307,35,22,18,258,38*7A
$GPGSV,3,3,12,03,12,320,32,09,07,144,31,08,03,023,,16,03,310,*7B
$GPRMC,140243.00,A,4454.0908,N,09325.0694,W,015.3,254.8,300508,001.1,E,A*23
$GPGGA,140243.00,4454.0908,N,09325.0694,W,1,08,01.2,00295.4,M,-030.7,M,,*50
$GPGSA,A,3,21,15,18,24,26,29,06,22,,,,,02.4,01.2,02.0*04
$GPGSV,3,1,12,21,75,306,45,15,58,074,44,18,57,270,42,24,55,116,47*7C
$GPGSV,3,2,12,26,47,058,48,29,26,188,38,06,26,307,35,22,18,258,40*7A
$GPGSV,3,3,12,03,12,320,32,09,07,144,33,08,03,023,,16,03,310,*79
$GPRMC,140244.00,A,4454.0905,N,09325.0760,W,016.5,261.8,300508,001.1,E,A*20
$GPGGA,140244.00,4454.0905,N,09325.0760,W,1,08,01.1,00295.4,M,-030.7,M,,*53
$GPGSA,A,3,21,15,18,24,26,29,,22,03,,,,02.0,01.1,01.7*02
$GPGSV,3,1,12,21,75,306,46,15,58,074,44,18,57,270,41,24,55,116,46*7D
$GPGSV,3,2,12,26,47,058,48,29,26,188,37,06,26,307,32,22,18,258,42*70
$GPGSV,3,3,12,03,12,320,32,09,07,144,33,08,03,023,,16,03,310,*79
$GPRMC,140245.00,A,4454.0904,N,09325.0837,W,020.9,266.2,300508,001.1,E,A*29
$GPGGA,140245.00,4454.0904,N,09325.0837,W,1,07,01.5,00295.2,M,-030.7,M,,*53
$GPGSA,A,3,21,15,18,24,26,29,,22,,,,,02.8,01.5,02.4*0D
$GPGSV,3,1,12,21,75,306,47,15,58,074,44,18,57,270,41,24,55,116,46*7C
$GPGSV,3,2,12,26,47,058,48,29,26,188,37,06,26,307,29,22,18,258,43*7B
$GPGSV,3,3,12,03,12,320,31,09,07,144,31,08,03,023,,16,03,310,*78
$GPRMC,140246.00,A,4454.0901,N,09325.0923,W,021.3,266.5,300508,001.1,E,A*27
$GPGGA,140246.00,4454.0901,N,09325.0923,W,1,07,01.6,00295.3,M,-030.7,M,,*53
$GPGSA,A,3,21,15,18,24,26,,,22,03,,,,02.5,01.6,02.0*0F
$GPGSV,3,1,12,21,75,306,48,15,58,074,43,18,57,270,41,24,55,116,46*74
$GPGSV,3,2,12,26,47,058,46,29,26,188,35,06,26,307,27,22,18,258,43*79
$GPGSV,3,3,12,03,12,320,32,09,07,144,30,08,03,023,,16,03,310,*7A
$GPRMC,140247.00,A,4454.0895,N,09325.1018,W,024.3,266.7,300508,001.1,E,A*2D
$GPGGA,140247.00,4454.0895,N,09325.1018,W,1,06,02.4,00295.1,M,-030.7,M,,*5C
$GPGSA,A,3,21,15,18,24,26,,,22,,,,,03.4,02.4,02.4*09
$GPGSV,3,1,12,21,75,306,48,15,58,074,43,18,57,270,40,24,55,116,46*75
$GPGSV,3,2,12,26,47,058,46,29,26,188,32,06,26,307,28,22,18,258,43*71
$GPGSV,3,3,12,03,12,320,32,09,07,144,30,08,03,023,,16,03,310,*7A
$GPRMC,140248.00,A,4454.0891,N,09325.1120,W,025.1,266.2,300508,001.1,E,A*2A
$GPGGA,140248.00,4454.0891,N,09325.1120,W,1,07,01.6,00295.3,M,-030.7,M,,*5F
$GPGSA,A,3,21,15,18,24,26,,,22,03,,,,02.5,01.6,02.0*0F
$GPGSV,3,1,12,21,75,306,48,15,58,074,43,18,57,270,40,24,55,116,46*75
$GPGSV,3,2,12,26,47,058,45,29,26,188,30,06,26,307,28,22,18,258,44*77
$GPGSV,3,3,12,03,12,320,34,09,07,144,32,08,03,023,,16,03,310,*7E
$GPRMC,140249.00,A,4454.0884,N,09325.1227,W,027.5,265.4,300508,001.1,E,A*28
$GPGGA,140249.00,4454.0884,N,09325.1227,W,1,06,02.4,00295.6,M,-030.7,M,,*5B
$GPGSA,A,3,21,15,18,24,26,,,22,,,,,03.4,02.4,02.4*09
$GPGSV,3,1,12,21,75,306,48,15,58,074,44,18,57,270,40,24,55,116,46*72
$GPGSV,3,2,12,26,47,058,45,29,26,188,27,06,26,307,28,22,18,258,44*71
$GPGSV,3,3,12,03,12,320,35,09,07,144,34,08,03,023,,16,03,310,*79
$GPRMC,140250.00,A,4454.0875,N,09325.1335,W,027.6,264.1,300508,001.1,E,A*2B
$GPGGA,140250.00,4454.0875,N,09325.1335,W,1,07,01.7,00296.4,M,-030.7,M,,*5F
$GPGSA,A,3,21,15,18,24,26,,06,22,,,,,02.8,01.7,02.2*04
$GPGSV,3,1,12,21,75,306,48,15,58,074,44,18,57,270,40,24,55,116,46*72
$GPGSV,3,2,12,26,47,058,46,29,26,188,27,06,26,307,28,22,18,258,44*72
$GPGSV,3,3,12,03,12,320,34,09,07,144,36,08,03,023,,16,03,310,*7A
$GPRMC,140251.00,A,4454.0862,N,09325.1447,W,027.5,262.1,300508,001.1,E,A*2B
$GPGGA,140251.00,4454.0862,N,09325.1447,W,1,08,01.2,00297.9,M,-030.7,M,,*5C
$GPGSA,A,3,21,15,18,24,26,29,06,22,,,,,02.4,01.2,02.0*04
$GPGSV,3,1,12,21,75,306,47,15,58,074,44,18,57,270,41,24,55,116,46*7C
$GPGSV,3,2,12,26,47,058,47,29,26,188,31,06,26,307,31,22,18,258,43*7B
$GPGSV,3,3,12,03,12,320,33,09,07,144,37,08,03,023,,16,03,310,*7C
$GPRMC,140252.00,A,4454.0850,N,09325.1554,W,027.3,258.9,300508,001.1,E,A*2D
$GPGGA,140252.00,4454.0850,N,09325.1554,W,1,09,01.1,00298.4,M,-030.7,M,,*5D
$GPGSA,A,3,21,15,18,24,26,29,06,22,03,,,,02.0,01.1,01.7*04
$GPGSV,3,1,12,21,75,306,47,15,58,074,44,18,57,270,41,24,55,116,47*7D
$GPGSV,3,2,12,26,47,058,47,29,26,188,32,06,26,307,33,22,18,258,42*7B
$GPGSV,3,3,12,03,12,320,32,09,07,144,37,08,03,023,,16,03,310,*7D
$GPRMC,140253.00,A,4454.0827,N,09325.1656,W,027.1,255.3,300508,001.1,E,A*28
$GPGGA,140253.00,4454.0827,N,09325.1656,W,1,06,02.4,00298.6,M,-030.7,M,,*56
$GPGSA,A,3,21,15,18,24,26,,,22,,,,,03.4,02.4,02.4*09
$GPGSV,3,1,12,21,75,306,47,15,58,074,43,18,57,270,41,24,55,116,47*7A
$GPGSV,3,2,12,26,47,058,47,29,26,188,33,06,26,307,33,22,18,258,41*79
$GPGSV,3,3,12,03,12,320,31,09,07,144,36,08,03,023,,16,03,310,*7F
$GPRMC,140254.00,A,4454.0804,N,09325.1757,W,027.1,251.2,300508,001.1,E,A*2B
$GPGGA,140254.00,4454.0804,N,09325.1757,W,1,08,01.2,00298.2,M,-030.7,M,,*5F
$GPGSA,A,3,21,15,18,24,26,29,06,22,,,,,02.4,01.2,02.0*04
$GPGSV,3,1,12,21,75,306,46,15,58,074,42,18,57,270,41,24,55,116,47*7A
$GPGSV,3,2,12,26,47,058,47,29,26,188,35,06,26,307,35,22,18,258,40*78
$GPGSV,3,3,12,03,12,320,30,09,07,144,36,08,03,023,,16,03,310,*7E
$GPRMC,140255.00,A,4454.0775,N,09325.1858,W,027.3,247.0,300508,001.1,E,A*24
$GPGGA,140255.00,4454.0775,N,09325.1858,W,1,09,01.1,00297.6,M,-030.7,M,,*5E
$GPGSA,A,3,21,15,18,24,26,29,06,22,03,,,,02.0,01.1,01.7*04
$GPGSV,3,1,12,21,75,306,45,15,58,074,42,18,57,270,43,24,55,116,47*7B
$GPGSV,3,2,12,26,47,058,47,29,26,188,34,06,26,307,37,22,18,258,40*7B
$GPGSV,3,3,12,03,12,320,31,09,07,144,34,08,03,023,,16,03,310,*7D
$GPRMC,140256.00,A,4454.0735,N,09325.1953,W,028.0,242.7,300508,001.1,E,A*27
$GPGGA,140256.00,4454.0735,N,09325.1953,W,1,06,02.4,00296.7,M,-030.7,M,,*5A
$GPGSA,A,3,21,15,18,24,26,,,22,,,,,03.4,02.4,02.4*09
$GPGSV,3,1,12,21,75,306,44,15,58,074,42,18,57,270,44,24,55,116,47*7D
$GPGSV,3,2,12,26,47,058,47,29,26,188,33,06,26,307,36,22,18,258,39*73
$GPGSV,3,3,12,03,12,320,29,09,07,144,32,08,03,023,,16,03,310,*72
$GPRMC,140257.00,A,4454.0694,N,09325.2046,W,028.3,238.0,300508,001.1,E,A*2B
$GPGGA,140257.00,4454.0694,N,09325.2046,W,1,07,01.3,00296.6,M,-030.7,M,,*5B
$GPGSA,A,3,21,15,18,24,26,29,06,,,,,,02.5,01.3,02.2*06
$GPGSV,3,1,12,21,75,306,43,15,58,074,42,18,57,270,45,24,55,116,47*7B
$GPGSV,3,2,12,26,47,058,47,29,26,188,34,06,26,307,35,22,18,258,36*78
$GPGSV,3,3,12,03,12,320,29,09,07,144,33,08,03,023,,16,03,310,*73
$GPRMC,140258.00,A,4454.0632,N,09325.2131,W,028.5,232.8,300508,001.1,E,A*2D
$GPGGA,140258.00,4454.0632,N,09325.2131,W,1,07,01.6,00297.5,M,-030.7,M,,*5E
$GPGSA,A,3,21,15,18,24,26,,,22,03,,,,02.5,01.6,02.0*0F
$GPGSV,3,1,12,21,75,306,43,15,58,074,42,18,57,270,45,24,55,116,45*79
$GPGSV,3,2,12,26,47,058,47,29,26,188,34,06,26,307,34,22,18,258,36*79
$GPGSV,3,3,12,03,12,320,30,09,07,144,34,08,03,023,,16,03,310,*7C
$GPRMC,140259.00,A,4454.0578,N,09325.2213,W,028.6,227.9,300508,001.1,E,A*24
$GPGGA,140259.00,4454.0578,N,09325.2213,W,1,09,01.1,00296.7,M,-030.7,M,,*5B
$GPGSA,A,3,21,15,18,24,26,29,06,22,03,,,,02.0,01.1,01.7*04
$GPGSV,3,1,12,21,75,306,42,15,58,074,43,18,57,270,44,24,55,116,46*7B
$GPGSV,3,2,12,26,47,058,46,29,26,188,33,06,26,307,37,22,18,258,35*7F
$GPGSV,3,3,12,03,12,320,33,09,07,144,34,08,03,023,,16,03,310,*7F
$GPRMC,140300.00,A,4454.0520,N,09325.2286,W,028.3,223.6,300508,001.1,E,A*26
$GPGGA,140300.00,4454.0520,N,09325.2286,W,1,09,01.1,00296.5,M,-030.7,M,,*55
$GPGSA,A,3,21,15,18,24,26,29,06,22,03,,,,02.0,01.1,01.7*04
$GPGSV,3,1,12,21,75,306,41,15,58,074,44,18,57,270,43,24,55,116,47*79
$GPGSV,3,2,12,26,47,058,45,29,26,188,34,06,26,307,39,22,18,258,35*75
$GPGSV,3,3,12,03,12,320,36,09,08,144,34,08,03,023,,16,03,310,*75
$GPRMC,140301.00,A,4454.0460,N,09325.2351,W,027.6,218.5,300508,001.1,E,A*28
$GPGGA,140301.00,4454.0460,N,09325.2351,W,1,09,01.1,00296.4,M,-030.7,M,,*5B
$GPGSA,A,3,21,15,18,24,26,29,06,22,03,,,,02.0,01.1,01.7*04
$GPGSV,3,1,12,21,75,306,40,15,58,074,45,18,57,270,44,24,55,116,47*7E
$GPGSV,3,2,12,26,47,058,45,29,26,188,35,06,26,307,40,22,18,258,37*78
$GPGSV,3,3,12,03,12,320,38,09,08,144,34,08,03,023,,16,03,310,*7B
$GPRMC,140302.00,A,4454.0398,N,09325.2401,W,025.1,211.8,300508,001.1,E,A*28
$GPGGA,140302.00,4454.0398,N,09325.2401,W,1,09,01.1,00296.4,M,-030.7,M,,*5A
$GPGSA,A,3,21,15,18,24,26,29,06,22,03,,,,02.0,01.1,01.7*04
$GPGSV,3,1,12,21,75,306,40,15,58,074,46,18,57,270,44,24,55,116,47*7D
$GPGSV,3,2,12,26,47,058,46,29,26,188,38,06,26,307,42,22,18,258,39*7A
$GPGSV,3,3,12,03,12,320,39,09,08,144,35,08,03,023,,16,03,310,*7B
$GPRMC,140303.00,A,4454.0338,N,09325.2432,W,022.2,203.2,300508,001.1,E,A*2E
$GPGGA,140303.00,4454.0338,N,09325.2432,W,1,08,01.2,00296.4,M,-030.7,M,,*53
$GPGSA,A,3,21,15,18,24,26,29,06,22,,,,,02.4,01.2,02.0*04
$GPGSV,3,1,12,21,75,306,40,15,58,074,46,18,57,270,44,24,55,116,47*7D
$GPGSV,3,2,12,26,47,058,46,29,26,188,40,06,26,307,42,22,18,258,41*7A
$GPGSV,3,3,12,03,12,320,37,09,08,144,34,08,03,023,,16,03,310,*74
$GPRMC,140304.00,A,4454.0283,N,09325.2444,W,019.9,193.5,300508,001.1,E,A*27
$GPGGA,140304.00,4454.0283,N,09325.2444,W,1,08,01.2,00296.4,M,-030.7,M,,*54
$GPGSA,A,3,21,15,18,24,26,29,06,22,,,,,02.4,01.2,02.0*04
$GPGSV,3,1,12,21,75,306,40,15,58,074,46,18,57,270,43,24,55,116,46*7B
$GPGSV,3,2,12,26,47,058,45,29,26,188,41,06,26,307,41,22,18,258,42*78
$GPGSV,3,3,12,03,12,320,35,09,08,144,31,08,03,023,,16,03,310,*73
$GPRMC,140305.00,A,4454.0234,N,09325.2443,W,016.8,183.9,300508,001.1,E,A*2E
$GPGGA,140305.00,4454.0234,N,09325.2443,W,1,09,01.1,00295.8,M,-030.7,M,,*53
$GPGSA,A,3,21,15,18,24,26,29,06,22,03,,,,02.0,01.1,01.7*04
$GPGSV,3,1,12,21,75,306,40,15,58,074,46,18,57,270,43,24,55,116,46*7B
$GPGSV,3,2,12,26,47,058,45,29,26,188,41,06,26,307,41,22,18,258,41*7B
$GPGSV,3,3,12,03,12,320,34,09,08,144,31,08,03,023,,16,03,310,*72
$GPRMC,140306.00,A,4454.0192,N,09325.2432,W,014.7,175.8,300508,001.1,E,A*21
$GPGGA,140306.00,4454.0192,N,09325.2432,W,1,09,01.1,00295.8,M,-030.7,M,,*59
$GPGSA,A,3,21,15,18,24,26,29,06,22,03,,,,02.0,01.1,01.7*04
$GPGSV,3,1,12,21,75,306,41,15,58,073,45,18,57,270,43,24,55,116,46*7E
$GPGSV,3,2,12,26,47,058,45,29,26,188,40,06,26,307,40,22,18,258,39*74
$GPGSV,3,3,12,03,12,320,34,09,08,144,33,08,03,023,,16,03,310,*70
$GPRMC,140307.00,A,4454.0153,N,09325.2420,W,012.8,173.0,300508,001.1,E,A*29
$GPGGA,140307.00,4454.0153,N,09325.2420,W,1,08,01.2,00294.9,M,-030.7,M,,*54
$GPGSA,A,3,21,15,18,24,26,29,06,22,,,,,02.4,01.2,02.0*04
$GPGSV,3,1,12,21,75,306,41,15,58,073,45,18,57,270,44,24,55,116,46*79
$GPGSV,3,2,12,26,47,058,46,29,26,188,39,06,26,307,39,22,18,258,39*77
$GPGSV,3,3,12,03,12,320,33,09,08,144,36,08,03,023,,16,03,310,*72
$GPRMC,140308.00,A,4454.0121,N,09325.2413,W,010.7,173.7,300508,001.1,E,A*29
$GPGGA,140308.00,4454.0121,N,09325.2413,W,1,08,01.2,00294.9,M,-030.7,M,,*5E
$GPGSA,A,3,21,15,18,24,26,29,06,22,,,,,02.4,01.2,02.0*04
$GPGSV,3,1,12,21,75,306,41,15,58,073,45,18,58,270,45,24,55,116,46*77
$GPGSV,3,2,12,26,47,058,46,29,26,188,39,06,26,307,39,22,18,258,39*77
$GPGSV,3,3,12,03,12,320,30,09,08,144,37,08,03,023,,16,03,310,*70
$GPRMC,140309.00,A,4454.0097,N,09325.2409,W,009.1,174.3,300508,001.1,E,A*22
$GPGGA,140309.00,4454.0097,N,09325.2409,W,1,08,01.2,00294.9,M,-030.7,M,,*58
$GPGSA,A,3,21,18,15,24,26,29,06,22,,,,,02.4,01.2,02.0*04
$GPGSV,3,1,12,21,75,306,41,18,58,270,46,15,58,073,45,24,55,116,46*74
$GPGSV,3,2,12,26,47,058,46,29,26,188,39,06,26,307,40,22,18,258,39*79
$GPGSV,3,3,12,03,12,320,27,09,08,144,37,08,03,023,,16,03,310,*76
$GPRMC,140310.00,A,4454.0084,N,09325.2406,W,006.0,174.5,300508,001.1,E,A*2F
$GPGGA,140310.00,4454.0084,N,09325.2406,W,1,08,01.2,00294.7,M,-030.7,M,,*53
$GPGSA,A,3,21,18,15,24,26,29,06,22,,,,,02.4,01.2,02.0*04
$GPGSV,3,1,12,21,75,306,41,18,58,270,46,15,58,073,45,24,55,116,46*74
$GPGSV,3,2,12,26,47,058,46,29,26,188,39,06,26,307,40,22,18,258,38*78
$GPGSV,3,3,12,03,12,320,26,09,08,144,37,08,03,023,,16,03,310,*77
$GPRMC,140311.00,A,4454.0077,N,09325.2404,W,004.4,174.1,300508,001.1,E,A*22
$GPGGA,140311.00,4454.0077,N,09325.2404,W,1,09,01.1,00294.9,M,-030.7,M,,*50
$GPGSA,A,3,21,18,15,24,26,29,06,22,03,,,,02.0,01.1,01.7*04
$GPGSV,3,1,12,21,76,306,41,18,58,270,46,15,58,073,45,24,55,116,46*77
$GPGSV,3,2,12,26,47,058,46,29,26,188,40,06,26,307,40,22,18,258,38*76
$GPGSV,3,3,12,03,12,320,27,09,08,144,37,08,03,023,,16,03,310,*76
$GPRMC,140312.00,A,4454.0068,N,09325.2400,W,004.4,169.4,300508,001.1,E,A*22
$GPGGA,140312.00,4454.0068,N,09325.2400,W,1,09,01.1,00294.9,M,-030.7,M,,*59
$GPGSA,A,3,21,18,15,24,26,29,06,22,03,,,,02.0,01.1,01.7*04
$GPGSV,3,1,12,21,76,306,41,18,58,270,46,15,58,073,45,24,55,116,46*77
$GPGSV,3,2,12,26,47,058,46,29,26,188,39,06,26,307,40,22,18,258,39*79
$GPGSV,3,3,12,03,12,320,29,09,08,144,37,08,03,023,,16,03,310,*78
$GPRMC,140313.00,A,4454.0052,N,09325.2386,W,009.3,158.5,300508,001.1,E,A*2A
$GPGGA,140313.00,4454.0052,N,09325.2386,W,1,08,01.5,00294.6,M,-030.7,M,,*52
$GPGSA,A,3,21,18,15,24,26,,06,22,03,,,,02.5,01.5,02.0*0A
$GPGSV,3,1,12,21,76,306,41,18,58,270,46,15,58,073,45,24,55,116,45*74
$GPGSV,3,2,12,26,47,058,46,29,26,188,37,06,26,307,38,22,18,258,39*78
$GPGSV,3,3,12,03,12,320,33,09,08,144,37,08,03,023,,16,03,310,*73
$GPRMC,140314.00,A,4454.0030,N,09325.2361,W,012.0,146.5,300508,001.1,E,A*26
$GPGGA,140314.00,4454.0030,N,09325.2361,W,1,09,01.1,00294.8,M,-030.7,M,,*53
$GPGSA,A,3,21,18,15,24,26,29,06,22,03,,,,02.0,01.1,01.7*04
$GPGSV,3,1,12,21,76,306,40,18,58,270,46,15,58,073,45,24,55,116,44*74
$GPGSV,3,2,12,26,47,058,45,29,26,188,39,06,26,307,39,22,18,258,38*75
$GPGSV,3,3,12,03,12,320,36,09,08,144,37,08,03,023,,16,03,310,*76
$GPRMC,140315.00,A,4454.0008,N,09325.2317,W,015.4,136.4,300508,001.1,E,A*28
$GPGGA,140315.00,4454.0008,N,09325.2317,W,1,08,01.2,00294.0,M,-030.7,M,,*52
$GPGSA,A,3,21,18,15,24,26,29,06,,03,,,,02.0,01.2,01.7*07
$GPGSV,3,1,12,21,76,306,40,18,58,270,47,15,58,073,45,24,55,116,43*72
$GPGSV,3,2,12,26,47,058,44,29,26,188,41,06,26,307,39,22,18,258,36*75
$GPGSV,3,3,12,03,12,320,37,09,08,144,36,08,03,023,,16,03,310,*76
$GPRMC,140316.00,A,4453.9981,N,09325.2265,W,015.8,132.8,300508,001.1,E,A*2D
$GPGGA,140316.00,4453.9981,N,09325.2265,W,1,09,01.1,00293.5,M,-030.7,M,,*53
$GPGSA,A,3,21,18,15,24,26,29,06,22,03,,,,02.0,01.1,01.7*04
$GPGSV,3,1,12,21,76,306,39,18,58,270,48,15,58,073,45,24,55,116,43*73
$GPGSV,3,2,12,26,47,057,43,29,26,188,41,06,26,307,40,22,18,258,34*71
$GPGSV,3,3,12,03,12,320,38,09,08,144,35,08,03,023,,16,03,310,*7A
$GPRMC,140317.00,A,4453.9947,N,09325.2209,W,018.2,134.6,300508,001.1,E,A*23
$GPGGA,140317.00,4453.9947,N,09325.2209,W,1,09,01.1,00293.5,M,-030.7,M,,*52
$GPGSA,A,3,21,18,15,24,26,29,06,22,03,,,,02.0,01.1,01.7*04
$GPGSV,3,1,12,21,76,306,39,18,58,270,48,15,58,073,45,24,55,116,43*73
$GPGSV,3,2,12,26,47,057,43,29,26,188,41,06,26,307,39,22,18,258,34*7F
$GPGSV,3,3,12,03,12,320,38,09,08,144,33,08,03,023,,16,03,310,*7C
$GPRMC,140318.00,A,4453.9900,N,09325.2156,W,020.8,138.5,300508,001.1,E,A*28
$GPGGA,140318.00,4453.9900,N,09325.2156,W,1,08,01.5,00295.3,M,-030.7,M,,*52
$GPGSA,A,3,21,18,15,24,26,,06,22,03,,,,02.5,01.5,02.0*0A
